pitch:0;roll:-1;yaw:0;vgx:0;vgy:0;vgz:0;templ:69;temph:70;tof:10;h:0;bat:7;baro:-77.75;time:0;agx:-8.00;agy:27.00;agz:-998.00;
pitch:0;roll:-1;yaw:0;vgx:0;vgy:0;vgz:0;templ:69;temph:70;tof:10;h:0;bat:7;baro:-77.99;time:0;agx:-7.00;agy:28.00;agz:-997.00;
pitch:0;roll:-1;yaw:0;vgx:0;vgy:0;vgz:0;templ:69;temph:70;tof:10;h:0;bat:7;baro:-77.76;time:0;agx:-8.00;agy:28.00;agz:-999.00;
pitch:0;roll:-1;yaw:0;vgx:0;vgy:0;vgz:0;templ:69;temph:70;tof:10;h:0;bat:7;baro:-77.82;time:0;agx:-8.00;agy:27.00;agz:-999.00;
pitch:0;roll:-1;yaw:0;vgx:0;vgy:0;vgz:0;templ:69;temph:70;tof:10;h:0;bat:7;baro:-77.94;time:0;agx:-8.00;agy:26.00;agz:-1000.00;
pitch:0;roll:-1;yaw:0;vgx:0;vgy:0;vgz:0;templ:69;temph:70;tof:10;h:0;bat:7;baro:-77.85;time:0;agx:-7.00;agy:29.00;agz:-1001.00;
pitch:0;roll:-1;yaw:0;vgx:0;vgy:0;vgz:0;templ:70;temph:70;tof:10;h:0;bat:7;baro:-77.90;time:0;agx:-8.00;agy:26.00;agz:-996.00;
pitch:0;roll:-1;yaw:0;vgx:0;vgy:0;vgz:0;templ:70;temph:70;tof:10;h:0;bat:7;baro:-78.29;time:0;agx:-8.00;agy:27.00;agz:-1000.00;
pitch:0;roll:-1;yaw:0;vgx:0;vgy:0;vgz:0;templ:70;temph:70;tof:10;h:0;bat:7;baro:-77.68;time:0;agx:-8.00;agy:28.00;agz:-999.00;
pitch:0;roll:-1;yaw:0;vgx:0;vgy:0;vgz:0;templ:69;temph:70;tof:10;h:0;bat:7;baro:-77.99;time:0;agx:-7.00;agy:28.00;agz:-1002.00;
pitch:0;roll:-1;yaw:0;vgx:0;vgy:0;vgz:0;templ:69;temph:70;tof:10;h:0;bat:7;baro:-77.84;time:0;agx:-8.00;agy:27.00;agz:-999.00;
pitch:0;roll:-1;yaw:0;vgx:0;vgy:0;vgz:0;templ:69;temph:70;tof:10;h:0;bat:7;baro:-78.06;time:0;agx:-9.00;agy:27.00;agz:-1000.00;
pitch:0;roll:-1;yaw:0;vgx:0;vgy:0;vgz:0;templ:69;temph:70;tof:10;h:0;bat:7;baro:-77.82;time:0;agx:-8.00;agy:27.00;agz:-1000.00;
pitch:0;roll:-1;yaw:0;vgx:0;vgy:0;vgz:0;templ:69;temph:70;tof:10;h:0;bat:7;baro:-78.00;time:0;agx:-9.00;agy:29.00;agz:-999.00;
pitch:0;roll:-1;yaw:0;vgx:0;vgy:0;vgz:0;templ:69;temph:70;tof:10;h:0;bat:7;baro:-77.67;time:0;agx:-7.00;agy:27.00;agz:-999.00;
pitch:0;roll:-1;yaw:0;vgx:0;vgy:0;vgz:0;templ:69;temph:70;tof:10;h:0;bat:7;baro:-77.94;time:0;agx:-8.00;agy:26.00;agz:-1000.00;
pitch:0;roll:-1;yaw:0;vgx:0;vgy:0;vgz:0;templ:69;temph:70;tof:10;h:0;bat:7;baro:-77.58;time:0;agx:-6.00;agy:28.00;agz:-1002.00;
pitch:0;roll:-1;yaw:0;vgx:0;vgy:0;vgz:0;templ:69;temph:70;tof:10;h:0;bat:7;baro:-77.61;time:0;agx:-6.00;agy:28.00;agz:-998.00;
pitch:0;roll:-1;yaw:0;vgx:0;vgy:0;vgz:0;templ:69;temph:70;tof:10;h:0;bat:7;baro:-77.90;time:0;agx:-7.00;agy:28.00;agz:-999.00;
pitch:0;roll:-1;yaw:0;vgx:0;vgy:0;vgz:0;templ:70;temph:71;tof:10;h:0;bat:7;baro:-78.03;time:0;agx:-7.00;agy:28.00;agz:-1001.00;
pitch:0;roll:-1;yaw:0;vgx:0;vgy:0;vgz:0;templ:70;temph:71;tof:10;h:0;bat:7;baro:-77.91;time:0;agx:-8.00;agy:27.00;agz:-1000.00;
pitch:0;roll:-1;yaw:0;vgx:0;vgy:0;vgz:0;templ:70;temph:71;tof:10;h:0;bat:7;baro:-77.86;time:0;agx:-7.00;agy:28.00;agz:-1000.00;
pitch:0;roll:-1;yaw:0;vgx:0;vgy:0;vgz:0;templ:70;temph:71;tof:10;h:0;bat:7;baro:-77.77;time:0;agx:-7.00;agy:28.00;agz:-1000.00;
pitch:0;roll:-1;yaw:0;vgx:0;vgy:0;vgz:0;templ:70;temph:71;tof:10;h:0;bat:7;baro:-77.95;time:0;agx:-5.00;agy:26.00;agz:-1000.00;
pitch:0;roll:-1;yaw:0;vgx:0;vgy:0;vgz:0;templ:70;temph:71;tof:10;h:0;bat:7;baro:-77.89;time:0;agx:-7.00;agy:27.00;agz:-1000.00;
pitch:0;roll:-1;yaw:0;vgx:0;vgy:0;vgz:0;templ:70;temph:71;tof:10;h:0;bat:7;baro:-77.84;time:0;agx:-6.00;agy:28.00;agz:-1002.00;
pitch:0;roll:-1;yaw:0;vgx:0;vgy:0;vgz:0;templ:70;temph:71;tof:10;h:0;bat:7;baro:-77.85;time:0;agx:-7.00;agy:26.00;agz:-999.00;
pitch:0;roll:-1;yaw:0;vgx:0;vgy:0;vgz:0;templ:70;temph:71;tof:10;h:0;bat:7;baro:-77.93;time:0;agx:-8.00;agy:27.00;agz:-999.00;
pitch:0;roll:-1;yaw:0;vgx:0;vgy:0;vgz:0;templ:70;temph:71;tof:10;h:0;bat:7;baro:-77.83;time:0;agx:-7.00;agy:27.00;agz:-1000.00;
pitch:0;roll:-1;yaw:0;vgx:0;vgy:0;vgz:0;templ:70;temph:72;tof:10;h:0;bat:7;baro:-77.80;time:0;agx:-7.00;agy:27.00;agz:-1000.00;
pitch:0;roll:-1;yaw:0;vgx:0;vgy:0;vgz:0;templ:70;temph:72;tof:10;h:0;bat:7;baro:-77.63;time:0;agx:-6.00;agy:26.00;agz:-999.00;
pitch:0;roll:-1;yaw:0;vgx:0;vgy:0;vgz:0;templ:70;temph:72;tof:10;h:0;bat:7;baro:-77.94;time:0;agx:-8.00;agy:26.00;agz:-1000.00;
pitch:0;roll:-1;yaw:0;vgx:0;vgy:0;vgz:0;templ:70;temph:72;tof:10;h:0;bat:7;baro:-77.91;time:0;agx:-9.00;agy:28.00;agz:-998.00;
pitch:0;roll:-1;yaw:0;vgx:0;vgy:0;vgz:0;templ:70;temph:72;tof:10;h:0;bat:7;baro:-77.96;time:0;agx:-7.00;agy:27.00;agz:-1000.00;
pitch:0;roll:-1;yaw:0;vgx:0;vgy:0;vgz:0;templ:70;temph:72;tof:10;h:0;bat:7;baro:-77.87;time:0;agx:-7.00;agy:27.00;agz:-999.00;
pitch:0;roll:-1;yaw:0;vgx:0;vgy:0;vgz:0;templ:70;temph:72;tof:10;h:0;bat:7;baro:-77.82;time:0;agx:-8.00;agy:27.00;agz:-999.00;
pitch:0;roll:-1;yaw:0;vgx:0;vgy:0;vgz:0;templ:70;temph:72;tof:10;h:0;bat:7;baro:-77.71;time:0;agx:-7.00;agy:27.00;agz:-1001.00;
pitch:0;roll:-1;yaw:0;vgx:0;vgy:0;vgz:0;templ:70;temph:72;tof:10;h:0;bat:7;baro:-77.53;time:0;agx:-7.00;agy:26.00;agz:-1000.00;
pitch:0;roll:-1;yaw:0;vgx:0;vgy:0;vgz:0;templ:70;temph:72;tof:10;h:0;bat:7;baro:-77.68;time:0;agx:-8.00;agy:28.00;agz:-1000.00;
pitch:0;roll:-1;yaw:0;vgx:0;vgy:0;vgz:0;templ:70;temph:71;tof:10;h:0;bat:7;baro:-78.00;time:0;agx:-6.00;agy:27.00;agz:-1001.00;
pitch:0;roll:-1;yaw:0;vgx:0;vgy:0;vgz:0;templ:70;temph:71;tof:10;h:0;bat:7;baro:-77.72;time:0;agx:-7.00;agy:26.00;agz:-1000.00;
pitch:0;roll:-1;yaw:0;vgx:0;vgy:0;vgz:0;templ:70;temph:71;tof:10;h:0;bat:7;baro:-78.10;time:0;agx:-7.00;agy:27.00;agz:-1000.00;
pitch:0;roll:-1;yaw:0;vgx:0;vgy:0;vgz:0;templ:70;temph:71;tof:10;h:0;bat:7;baro:-77.95;time:0;agx:-9.00;agy:26.00;agz:-999.00;
pitch:0;roll:-1;yaw:0;vgx:0;vgy:0;vgz:0;templ:70;temph:71;tof:10;h:0;bat:7;baro:-77.83;time:0;agx:-8.00;agy:27.00;agz:-999.00;
pitch:0;roll:-1;yaw:0;vgx:0;vgy:0;vgz:0;templ:70;temph:71;tof:10;h:0;bat:7;baro:-77.69;time:0;agx:-9.00;agy:27.00;agz:-999.00;
pitch:0;roll:-1;yaw:0;vgx:0;vgy:0;vgz:0;templ:70;temph:71;tof:10;h:0;bat:7;baro:-78.01;time:0;agx:-7.00;agy:29.00;agz:-999.00;
pitch:0;roll:-1;yaw:0;vgx:0;vgy:0;vgz:0;templ:70;temph:71;tof:10;h:0;bat:7;baro:-78.04;time:0;agx:-6.00;agy:30.00;agz:-1001.00;
pitch:0;roll:-1;yaw:0;vgx:0;vgy:0;vgz:0;templ:70;temph:71;tof:10;h:0;bat:7;baro:-77.76;time:0;agx:-9.00;agy:28.00;agz:-999.00;
pitch:0;roll:-1;yaw:0;vgx:0;vgy:0;vgz:0;templ:70;temph:71;tof:10;h:0;bat:7;baro:-77.78;time:0;agx:-7.00;agy:27.00;agz:-998.00;
pitch:0;roll:-1;yaw:0;vgx:0;vgy:0;vgz:0;templ:71;temph:72;tof:10;h:0;bat:7;baro:-77.97;time:0;agx:-7.00;agy:26.00;agz:-1000.00;
pitch:0;roll:-1;yaw:0;vgx:0;vgy:0;vgz:0;templ:71;temph:72;tof:10;h:0;bat:7;baro:-77.90;time:0;agx:-9.00;agy:27.00;agz:-1001.00;
pitch:0;roll:-1;yaw:0;vgx:0;vgy:0;vgz:0;templ:71;temph:72;tof:10;h:0;bat:7;baro:-77.78;time:0;agx:-8.00;agy:28.00;agz:-999.00;
pitch:0;roll:-1;yaw:0;vgx:0;vgy:0;vgz:0;templ:71;temph:72;tof:10;h:0;bat:7;baro:-77.60;time:0;agx:-8.00;agy:27.00;agz:-998.00;
pitch:0;roll:-1;yaw:0;vgx:0;vgy:0;vgz:0;templ:71;temph:72;tof:10;h:0;bat:7;baro:-77.79;time:0;agx:-7.00;agy:26.00;agz:-997.00;
pitch:0;roll:-1;yaw:0;vgx:0;vgy:0;vgz:0;templ:71;temph:72;tof:10;h:0;bat:7;baro:-77.81;time:0;agx:-7.00;agy:28.00;agz:-1000.00;
pitch:0;roll:-1;yaw:0;vgx:0;vgy:0;vgz:0;templ:71;temph:72;tof:10;h:0;bat:7;baro:-77.88;time:0;agx:-9.00;agy:28.00;agz:-999.00;
pitch:0;roll:-1;yaw:0;vgx:0;vgy:0;vgz:0;templ:71;temph:72;tof:10;h:0;bat:7;baro:-77.74;time:0;agx:-7.00;agy:28.00;agz:-999.00;
pitch:0;roll:-1;yaw:0;vgx:0;vgy:0;vgz:0;templ:71;temph:72;tof:10;h:0;bat:7;baro:-77.76;time:0;agx:-9.00;agy:27.00;agz:-1001.00;
pitch:0;roll:-1;yaw:0;vgx:0;vgy:0;vgz:0;templ:71;temph:72;tof:10;h:0;bat:7;baro:-77.67;time:0;agx:-9.00;agy:27.00;agz:-1001.00;
pitch:0;roll:-1;yaw:0;vgx:0;vgy:0;vgz:0;templ:71;temph:72;tof:10;h:0;bat:7;baro:-77.68;time:0;agx:-7.00;agy:28.00;agz:-996.00;
pitch:0;roll:-1;yaw:0;vgx:0;vgy:0;vgz:0;templ:71;temph:72;tof:10;h:0;bat:7;baro:-77.94;time:0;agx:-7.00;agy:27.00;agz:-999.00;
pitch:0;roll:-1;yaw:0;vgx:0;vgy:0;vgz:0;templ:71;temph:72;tof:10;h:0;bat:7;baro:-77.80;time:0;agx:-7.00;agy:27.00;agz:-1000.00;
pitch:0;roll:-1;yaw:0;vgx:0;vgy:0;vgz:0;templ:71;temph:72;tof:10;h:0;bat:7;baro:-77.80;time:0;agx:-9.00;agy:27.00;agz:-997.00;
pitch:0;roll:-1;yaw:0;vgx:0;vgy:0;vgz:0;templ:71;temph:72;tof:10;h:0;bat:7;baro:-77.91;time:0;agx:-7.00;agy:26.00;agz:-1000.00;
pitch:0;roll:-1;yaw:0;vgx:0;vgy:0;vgz:0;templ:71;temph:72;tof:10;h:0;bat:7;baro:-77.62;time:0;agx:-7.00;agy:28.00;agz:-998.00;
pitch:0;roll:-1;yaw:0;vgx:0;vgy:0;vgz:0;templ:71;temph:72;tof:10;h:0;bat:7;baro:-77.65;time:0;agx:-7.00;agy:27.00;agz:-999.00;
pitch:0;roll:-1;yaw:0;vgx:0;vgy:0;vgz:0;templ:71;temph:72;tof:10;h:0;bat:7;baro:-78.02;time:0;agx:-8.00;agy:27.00;agz:-999.00;
pitch:0;roll:-1;yaw:0;vgx:0;vgy:0;vgz:0;templ:71;temph:72;tof:10;h:0;bat:7;baro:-77.88;time:0;agx:-8.00;agy:27.00;agz:-998.00;
pitch:0;roll:-1;yaw:0;vgx:0;vgy:0;vgz:0;templ:71;temph:72;tof:10;h:0;bat:7;baro:-77.75;time:0;agx:-8.00;agy:29.00;agz:-998.00;
pitch:0;roll:-1;yaw:0;vgx:0;vgy:0;vgz:0;templ:71;temph:73;tof:10;h:0;bat:7;baro:-77.68;time:0;agx:-7.00;agy:27.00;agz:-997.00;
pitch:0;roll:-1;yaw:0;vgx:0;vgy:0;vgz:0;templ:71;temph:73;tof:10;h:0;bat:7;baro:-77.76;time:0;agx:-8.00;agy:26.00;agz:-1000.00;
pitch:0;roll:-1;yaw:0;vgx:0;vgy:0;vgz:0;templ:71;temph:73;tof:10;h:0;bat:7;baro:-77.77;time:0;agx:-6.00;agy:28.00;agz:-1000.00;
pitch:0;roll:-1;yaw:0;vgx:0;vgy:0;vgz:0;templ:71;temph:73;tof:10;h:0;bat:7;baro:-77.69;time:0;agx:-7.00;agy:27.00;agz:-998.00;
pitch:0;roll:-1;yaw:0;vgx:0;vgy:0;vgz:0;templ:71;temph:73;tof:10;h:0;bat:7;baro:-77.83;time:0;agx:-9.00;agy:26.00;agz:-1000.00;
pitch:0;roll:-1;yaw:0;vgx:0;vgy:0;vgz:0;templ:71;temph:73;tof:10;h:0;bat:7;baro:-77.97;time:0;agx:-7.00;agy:26.00;agz:-1000.00;
pitch:0;roll:-1;yaw:0;vgx:0;vgy:0;vgz:0;templ:71;temph:73;tof:10;h:0;bat:7;baro:-77.81;time:0;agx:-8.00;agy:27.00;agz:-998.00;
pitch:0;roll:-1;yaw:0;vgx:0;vgy:0;vgz:0;templ:71;temph:73;tof:10;h:0;bat:7;baro:-77.56;time:0;agx:-7.00;agy:28.00;agz:-999.00;
pitch:0;roll:-1;yaw:0;vgx:0;vgy:0;vgz:0;templ:71;temph:73;tof:10;h:0;bat:7;baro:-77.61;time:0;agx:-7.00;agy:27.00;agz:-999.00;
pitch:0;roll:-1;yaw:0;vgx:0;vgy:0;vgz:0;templ:71;temph:73;tof:10;h:0;bat:7;baro:-77.86;time:0;agx:-8.00;agy:29.00;agz:-1000.00;
pitch:0;roll:-1;yaw:0;vgx:0;vgy:0;vgz:0;templ:71;temph:73;tof:10;h:0;bat:7;baro:-77.86;time:0;agx:-8.00;agy:28.00;agz:-999.00;
pitch:0;roll:-1;yaw:0;vgx:0;vgy:0;vgz:0;templ:71;temph:73;tof:10;h:0;bat:7;baro:-77.73;time:0;agx:-8.00;agy:28.00;agz:-999.00;
pitch:0;roll:-1;yaw:0;vgx:0;vgy:0;vgz:0;templ:71;temph:73;tof:10;h:0;bat:7;baro:-77.84;time:0;agx:-7.00;agy:27.00;agz:-998.00;
pitch:0;roll:-1;yaw:0;vgx:0;vgy:0;vgz:0;templ:71;temph:73;tof:10;h:0;bat:7;baro:-77.92;time:0;agx:-6.00;agy:27.00;agz:-999.00;
pitch:0;roll:-1;yaw:0;vgx:0;vgy:0;vgz:0;templ:71;temph:73;tof:10;h:0;bat:7;baro:-77.87;time:0;agx:-7.00;agy:26.00;agz:-1001.00;
pitch:0;roll:-1;yaw:0;vgx:0;vgy:0;vgz:0;templ:71;temph:73;tof:10;h:0;bat:7;baro:-77.85;time:0;agx:-7.00;agy:27.00;agz:-999.00;
pitch:0;roll:-1;yaw:0;vgx:0;vgy:0;vgz:0;templ:71;temph:73;tof:10;h:0;bat:7;baro:-77.93;time:0;agx:-8.00;agy:27.00;agz:-1000.00;
pitch:0;roll:-1;yaw:0;vgx:0;vgy:0;vgz:0;templ:71;temph:73;tof:10;h:0;bat:7;baro:-77.73;time:0;agx:-6.00;agy:26.00;agz:-1000.00;
pitch:0;roll:-1;yaw:0;vgx:0;vgy:0;vgz:0;templ:71;temph:73;tof:10;h:0;bat:7;baro:-77.69;time:0;agx:-7.00;agy:26.00;agz:-1000.00;
pitch:0;roll:-1;yaw:0;vgx:0;vgy:0;vgz:0;templ:71;temph:73;tof:10;h:0;bat:7;baro:-77.87;time:0;agx:-8.00;agy:25.00;agz:-997.00;
pitch:0;roll:-1;yaw:0;vgx:0;vgy:0;vgz:0;templ:71;temph:73;tof:10;h:0;bat:7;baro:-77.76;time:0;agx:-7.00;agy:27.00;agz:-1000.00;
pitch:0;roll:-1;yaw:0;vgx:0;vgy:0;vgz:0;templ:71;temph:73;tof:10;h:0;bat:7;baro:-77.36;time:0;agx:-7.00;agy:27.00;agz:-999.00;
pitch:0;roll:-1;yaw:0;vgx:0;vgy:0;vgz:0;templ:71;temph:73;tof:10;h:0;bat:7;baro:-77.90;time:0;agx:-8.00;agy:28.00;agz:-999.00;
pitch:0;roll:-1;yaw:0;vgx:0;vgy:0;vgz:0;templ:71;temph:73;tof:10;h:0;bat:7;baro:-78.06;time:0;agx:-8.00;agy:28.00;agz:-998.00;
pitch:0;roll:-1;yaw:0;vgx:0;vgy:0;vgz:0;templ:71;temph:73;tof:10;h:0;bat:7;baro:-77.87;time:0;agx:-7.00;agy:25.00;agz:-1000.00;
pitch:0;roll:-1;yaw:0;vgx:0;vgy:0;vgz:0;templ:71;temph:73;tof:10;h:0;bat:7;baro:-77.90;time:0;agx:-8.00;agy:28.00;agz:-997.00;
pitch:0;roll:-1;yaw:0;vgx:0;vgy:0;vgz:0;templ:71;temph:73;tof:10;h:0;bat:7;baro:-77.80;time:0;agx:-9.00;agy:27.00;agz:-997.00;
pitch:0;roll:-1;yaw:0;vgx:0;vgy:0;vgz:0;templ:71;temph:73;tof:10;h:0;bat:7;baro:-77.65;time:0;agx:-9.00;agy:26.00;agz:-997.00;
pitch:0;roll:-1;yaw:0;vgx:0;vgy:0;vgz:0;templ:71;temph:73;tof:10;h:0;bat:7;baro:-77.56;time:0;agx:-8.00;agy:26.00;agz:-998.00;
pitch:0;roll:-1;yaw:0;vgx:0;vgy:0;vgz:0;templ:71;temph:73;tof:10;h:0;bat:7;baro:-77.89;time:0;agx:-7.00;agy:28.00;agz:-999.00;
pitch:0;roll:-1;yaw:0;vgx:0;vgy:0;vgz:0;templ:71;temph:73;tof:10;h:0;bat:7;baro:-77.74;time:0;agx:-9.00;agy:28.00;agz:-998.00;
pitch:0;roll:-1;yaw:0;vgx:0;vgy:0;vgz:0;templ:71;temph:73;tof:10;h:0;bat:7;baro:-78.03;time:0;agx:-8.00;agy:27.00;agz:-997.00;
pitch:0;roll:-1;yaw:0;vgx:0;vgy:0;vgz:0;templ:71;temph:73;tof:10;h:0;bat:7;baro:-77.96;time:0;agx:-7.00;agy:27.00;agz:-998.00;
pitch:0;roll:-1;yaw:0;vgx:0;vgy:0;vgz:0;templ:71;temph:73;tof:10;h:0;bat:7;baro:-77.62;time:0;agx:-8.00;agy:27.00;agz:-998.00;
pitch:0;roll:-1;yaw:0;vgx:0;vgy:0;vgz:0;templ:71;temph:73;tof:10;h:0;bat:7;baro:-77.63;time:0;agx:-8.00;agy:27.00;agz:-1001.00;
pitch:0;roll:-1;yaw:0;vgx:0;vgy:0;vgz:0;templ:71;temph:73;tof:10;h:0;bat:7;baro:-77.82;time:0;agx:-8.00;agy:28.00;agz:-999.00;
pitch:0;roll:-1;yaw:0;vgx:0;vgy:0;vgz:0;templ:71;temph:73;tof:10;h:0;bat:7;baro:-77.61;time:0;agx:-7.00;agy:27.00;agz:-1002.00;
pitch:0;roll:-1;yaw:0;vgx:0;vgy:0;vgz:0;templ:71;temph:73;tof:10;h:0;bat:7;baro:-77.75;time:0;agx:-7.00;agy:27.00;agz:-997.00;
pitch:0;roll:-1;yaw:0;vgx:0;vgy:0;vgz:0;templ:71;temph:73;tof:10;h:0;bat:7;baro:-77.55;time:0;agx:-8.00;agy:28.00;agz:-1000.00;
pitch:0;roll:-1;yaw:0;vgx:0;vgy:0;vgz:0;templ:71;temph:73;tof:10;h:0;bat:7;baro:-77.59;time:0;agx:-8.00;agy:26.00;agz:-998.00;
pitch:0;roll:-1;yaw:0;vgx:0;vgy:0;vgz:0;templ:72;temph:74;tof:10;h:0;bat:7;baro:-77.92;time:0;agx:-7.00;agy:26.00;agz:-1000.00;
pitch:0;roll:-1;yaw:0;vgx:0;vgy:0;vgz:0;templ:72;temph:74;tof:10;h:0;bat:7;baro:-77.72;time:0;agx:-7.00;agy:28.00;agz:-997.00;
pitch:0;roll:-1;yaw:0;vgx:0;vgy:0;vgz:0;templ:72;temph:74;tof:10;h:0;bat:7;baro:-77.72;time:0;agx:-6.00;agy:27.00;agz:-997.00;
pitch:0;roll:-1;yaw:0;vgx:0;vgy:0;vgz:0;templ:72;temph:74;tof:10;h:0;bat:7;baro:-77.95;time:0;agx:-8.00;agy:27.00;agz:-998.00;
pitch:0;roll:-1;yaw:0;vgx:0;vgy:0;vgz:0;templ:72;temph:74;tof:10;h:0;bat:7;baro:-77.62;time:0;agx:-6.00;agy:28.00;agz:-999.00;
pitch:0;roll:-1;yaw:0;vgx:0;vgy:0;vgz:0;templ:72;temph:74;tof:10;h:0;bat:7;baro:-77.54;time:0;agx:-6.00;agy:26.00;agz:-998.00;
pitch:0;roll:-1;yaw:0;vgx:0;vgy:0;vgz:0;templ:72;temph:74;tof:10;h:0;bat:7;baro:-78.09;time:0;agx:-9.00;agy:27.00;agz:-997.00;
pitch:0;roll:-1;yaw:0;vgx:0;vgy:0;vgz:0;templ:72;temph:74;tof:10;h:0;bat:7;baro:-77.87;time:0;agx:-8.00;agy:27.00;agz:-998.00;
pitch:0;roll:-1;yaw:0;vgx:0;vgy:0;vgz:0;templ:72;temph:74;tof:10;h:0;bat:7;baro:-77.77;time:0;agx:-7.00;agy:27.00;agz:-999.00;
pitch:0;roll:-1;yaw:0;vgx:0;vgy:0;vgz:0;templ:72;temph:74;tof:10;h:0;bat:7;baro:-77.63;time:0;agx:-7.00;agy:26.00;agz:-1000.00;
pitch:0;roll:-1;yaw:0;vgx:0;vgy:0;vgz:0;templ:71;temph:74;tof:10;h:0;bat:7;baro:-77.81;time:0;agx:-7.00;agy:26.00;agz:-1000.00;
pitch:0;roll:-1;yaw:0;vgx:0;vgy:0;vgz:0;templ:71;temph:74;tof:10;h:0;bat:7;baro:-77.86;time:0;agx:-6.00;agy:26.00;agz:-996.00;
pitch:0;roll:-1;yaw:0;vgx:0;vgy:0;vgz:0;templ:71;temph:74;tof:10;h:0;bat:7;baro:-77.79;time:0;agx:-7.00;agy:26.00;agz:-1000.00;
pitch:0;roll:-1;yaw:0;vgx:0;vgy:0;vgz:0;templ:71;temph:74;tof:10;h:0;bat:7;baro:-77.90;time:0;agx:-7.00;agy:25.00;agz:-998.00;
pitch:0;roll:-1;yaw:0;vgx:0;vgy:0;vgz:0;templ:71;temph:74;tof:10;h:0;bat:7;baro:-77.75;time:0;agx:-7.00;agy:26.00;agz:-999.00;
pitch:0;roll:-1;yaw:0;vgx:0;vgy:0;vgz:0;templ:71;temph:74;tof:10;h:0;bat:7;baro:-77.72;time:0;agx:-7.00;agy:27.00;agz:-1000.00;
pitch:0;roll:-1;yaw:0;vgx:0;vgy:0;vgz:0;templ:71;temph:74;tof:10;h:0;bat:7;baro:-77.43;time:0;agx:-9.00;agy:29.00;agz:-999.00;
pitch:0;roll:-1;yaw:0;vgx:0;vgy:0;vgz:0;templ:71;temph:74;tof:10;h:0;bat:7;baro:-77.69;time:0;agx:-7.00;agy:26.00;agz:-997.00;
pitch:0;roll:-1;yaw:0;vgx:0;vgy:0;vgz:0;templ:71;temph:74;tof:10;h:0;bat:7;baro:-77.87;time:0;agx:-8.00;agy:26.00;agz:-998.00;
pitch:-1;roll:-1;yaw:0;vgx:0;vgy:0;vgz:0;templ:71;temph:74;tof:10;h:0;bat:7;baro:-77.66;time:0;agx:-7.00;agy:26.00;agz:-997.00;
pitch:-1;roll:0;yaw:0;vgx:0;vgy:0;vgz:0;templ:73;temph:74;tof:10;h:0;bat:7;baro:-77.99;time:0;agx:-7.00;agy:28.00;agz:-999.00;
pitch:0;roll:0;yaw:0;vgx:0;vgy:0;vgz:0;templ:73;temph:74;tof:10;h:0;bat:7;baro:-77.74;time:0;agx:45.00;agy:-2.00;agz:-1019.00;
pitch:0;roll:2;yaw:9;vgx:0;vgy:0;vgz:0;templ:73;temph:74;tof:10;h:0;bat:7;baro:-77.68;time:0;agx:-3.00;agy:27.00;agz:-982.00;
pitch:2;roll:2;yaw:18;vgx:0;vgy:0;vgz:0;templ:73;temph:74;tof:10;h:0;bat:7;baro:-77.74;time:0;agx:-1.00;agy:20.00;agz:-1015.00;
pitch:4;roll:4;yaw:31;vgx:0;vgy:0;vgz:0;templ:73;temph:74;tof:10;h:0;bat:7;baro:-77.59;time:0;agx:147.00;agy:19.00;agz:-905.00;
pitch:-3;roll:4;yaw:45;vgx:0;vgy:0;vgz:0;templ:73;temph:74;tof:10;h:0;bat:7;baro:-77.74;time:0;agx:215.00;agy:54.00;agz:-1017.00;
pitch:0;roll:1;yaw:48;vgx:0;vgy:0;vgz:0;templ:73;temph:74;tof:10;h:0;bat:7;baro:-77.59;time:0;agx:147.00;agy:19.00;agz:-905.00;
pitch:0;roll:0;yaw:48;vgx:0;vgy:0;vgz:0;templ:73;temph:74;tof:10;h:0;bat:7;baro:-77.53;time:0;agx:-296.00;agy:-332.00;agz:-785.00;
pitch:0;roll:0;yaw:48;vgx:0;vgy:0;vgz:0;templ:73;temph:74;tof:10;h:0;bat:7;baro:-77.57;time:0;agx:214.00;agy:-234.00;agz:-919.00;
pitch:0;roll:0;yaw:48;vgx:0;vgy:0;vgz:0;templ:73;temph:74;tof:10;h:0;bat:7;baro:-77.93;time:0;agx:-5.00;agy:-18.00;agz:-952.00;
pitch:4;roll:-4;yaw:48;vgx:0;vgy:0;vgz:0;templ:72;temph:74;tof:10;h:0;bat:7;baro:-77.92;time:0;agx:5.00;agy:3.00;agz:-984.00;
pitch:3;roll:-3;yaw:48;vgx:0;vgy:0;vgz:0;templ:72;temph:74;tof:10;h:0;bat:7;baro:-77.74;time:0;agx:19.00;agy:-11.00;agz:-1023.00;
pitch:1;roll:-1;yaw:48;vgx:0;vgy:0;vgz:0;templ:72;temph:74;tof:10;h:0;bat:7;baro:-77.41;time:0;agx:133.00;agy:113.00;agz:-1085.00;
pitch:1;roll:-1;yaw:48;vgx:0;vgy:0;vgz:0;templ:72;temph:74;tof:10;h:0;bat:7;baro:-77.65;time:0;agx:96.00;agy:79.00;agz:-1011.00;
pitch:4;roll:-2;yaw:48;vgx:0;vgy:0;vgz:0;templ:72;temph:74;tof:10;h:0;bat:7;baro:-77.66;time:0;agx:-25.00;agy:10.00;agz:-946.00;
pitch:3;roll:-2;yaw:48;vgx:0;vgy:0;vgz:0;templ:72;temph:74;tof:10;h:0;bat:7;baro:-77.69;time:0;agx:35.00;agy:26.00;agz:-1000.00;
pitch:1;roll:-1;yaw:48;vgx:0;vgy:0;vgz:0;templ:72;temph:74;tof:10;h:0;bat:7;baro:-77.72;time:0;agx:120.00;agy:53.00;agz:-1129.00;
pitch:1;roll:-1;yaw:48;vgx:0;vgy:0;vgz:0;templ:72;temph:74;tof:10;h:0;bat:7;baro:-77.81;time:0;agx:35.00;agy:62.00;agz:-1058.00;
pitch:1;roll:0;yaw:48;vgx:0;vgy:0;vgz:0;templ:72;temph:74;tof:10;h:0;bat:7;baro:-78.10;time:0;agx:38.00;agy:60.00;agz:-1015.00;
pitch:1;roll:-1;yaw:49;vgx:0;vgy:0;vgz:0;templ:72;temph:74;tof:10;h:0;bat:7;baro:-77.81;time:0;agx:44.00;agy:25.00;agz:-974.00;
pitch:0;roll:0;yaw:50;vgx:0;vgy:0;vgz:0;templ:73;temph:75;tof:10;h:0;bat:7;baro:-78.01;time:0;agx:30.00;agy:-39.00;agz:-1132.00;
pitch:-1;roll:-2;yaw:50;vgx:0;vgy:0;vgz:0;templ:73;temph:75;tof:10;h:0;bat:7;baro:-77.95;time:0;agx:114.00;agy:-159.00;agz:-958.00;
pitch:-1;roll:-4;yaw:53;vgx:0;vgy:0;vgz:0;templ:73;temph:75;tof:10;h:0;bat:7;baro:-77.76;time:0;agx:67.00;agy:51.00;agz:-1114.00;
pitch:-1;roll:-14;yaw:54;vgx:0;vgy:0;vgz:0;templ:73;temph:75;tof:10;h:0;bat:7;baro:-77.79;time:0;agx:-28.00;agy:-45.00;agz:-973.00;
pitch:-2;roll:-16;yaw:53;vgx:0;vgy:0;vgz:0;templ:73;temph:75;tof:10;h:0;bat:7;baro:-77.71;time:0;agx:-226.00;agy:-14.00;agz:-778.00;
pitch:-2;roll:-19;yaw:50;vgx:0;vgy:0;vgz:0;templ:73;temph:75;tof:10;h:0;bat:7;baro:-77.84;time:0;agx:127.00;agy:140.00;agz:-784.00;
pitch:12;roll:-27;yaw:63;vgx:0;vgy:0;vgz:-2;templ:73;temph:75;tof:10;h:0;bat:7;baro:-77.93;time:0;agx:-32.00;agy:285.00;agz:-957.00;
pitch:20;roll:-33;yaw:60;vgx:0;vgy:0;vgz:-5;templ:73;temph:75;tof:10;h:0;bat:7;baro:-77.71;time:0;agx:132.00;agy:485.00;agz:-1000.00;
pitch:20;roll:-41;yaw:53;vgx:0;vgy:0;vgz:-5;templ:73;temph:75;tof:10;h:0;bat:7;baro:-77.57;time:0;agx:442.00;agy:729.00;agz:-1101.00;
pitch:19;roll:-46;yaw:51;vgx:0;vgy:0;vgz:-6;templ:73;temph:75;tof:10;h:10;bat:7;baro:-77.31;time:0;agx:405.00;agy:467.00;agz:-867.00;
pitch:13;roll:-53;yaw:48;vgx:0;vgy:0;vgz:-4;templ:73;temph:74;tof:43;h:10;bat:7;baro:-77.71;time:0;agx:188.00;agy:478.00;agz:-574.00;
pitch:10;roll:-58;yaw:39;vgx:0;vgy:0;vgz:-2;templ:73;temph:74;tof:76;h:20;bat:7;baro:-77.56;time:0;agx:27.00;agy:741.00;agz:-534.00;
pitch:8;roll:-61;yaw:32;vgx:0;vgy:0;vgz:-2;templ:73;temph:74;tof:154;h:20;bat:7;baro:-77.49;time:0;agx:-7.00;agy:798.00;agz:-396.00;
pitch:8;roll:-63;yaw:27;vgx:0;vgy:0;vgz:-1;templ:73;temph:74;tof:213;h:20;bat:7;baro:-77.45;time:0;agx:-40.00;agy:826.00;agz:-372.00;
pitch:4;roll:-64;yaw:25;vgx:0;vgy:0;vgz:0;templ:73;temph:74;tof:227;h:20;bat:7;baro:-77.36;time:0;agx:-11.00;agy:904.00;agz:-443.00;
pitch:4;roll:-63;yaw:23;vgx:0;vgy:0;vgz:0;templ:73;temph:74;tof:226;h:0;bat:7;baro:-77.89;time:0;agx:19.00;agy:904.00;agz:-407.00;
pitch:4;roll:-63;yaw:22;vgx:0;vgy:0;vgz:0;templ:73;temph:74;tof:230;h:0;bat:7;baro:-77.13;time:0;agx:39.00;agy:888.00;agz:-391.00;
pitch:4;roll:-63;yaw:21;vgx:0;vgy:0;vgz:0;templ:73;temph:74;tof:228;h:0;bat:7;baro:-77.13;time:0;agx:44.00;agy:860.00;agz:-401.00;
pitch:5;roll:-63;yaw:21;vgx:0;vgy:0;vgz:0;templ:73;temph:74;tof:221;h:0;bat:7;baro:-77.40;time:0;agx:75.00;agy:886.00;agz:-462.00;
pitch:5;roll:-62;yaw:20;vgx:0;vgy:0;vgz:0;templ:73;temph:74;tof:219;h:0;bat:7;baro:-77.05;time:0;agx:83.00;agy:892.00;agz:-479.00;
pitch:4;roll:-62;yaw:19;vgx:0;vgy:0;vgz:0;templ:73;temph:76;tof:217;h:0;bat:7;baro:-77.25;time:0;agx:97.00;agy:866.00;agz:-473.00;
pitch:4;roll:-62;yaw:19;vgx:0;vgy:0;vgz:0;templ:73;temph:76;tof:214;h:0;bat:7;baro:-77.40;time:0;agx:73.00;agy:919.00;agz:-454.00;
pitch:0;roll:-63;yaw:18;vgx:0;vgy:0;vgz:0;templ:73;temph:76;tof:214;h:0;bat:7;baro:-77.53;time:0;agx:41.00;agy:927.00;agz:-469.00;
pitch:-5;roll:-65;yaw:17;vgx:0;vgy:0;vgz:0;templ:73;temph:76;tof:230;h:0;bat:7;baro:-77.20;time:0;agx:5.00;agy:868.00;agz:-432.00;
pitch:-3;roll:-64;yaw:16;vgx:0;vgy:0;vgz:0;templ:73;temph:76;tof:232;h:0;bat:7;baro:-77.48;time:0;agx:-45.00;agy:954.00;agz:-420.00;
pitch:-4;roll:-64;yaw:15;vgx:0;vgy:0;vgz:-1;templ:73;temph:76;tof:229;h:0;bat:7;baro:-77.35;time:0;agx:82.00;agy:938.00;agz:-490.00;
pitch:-3;roll:-64;yaw:15;vgx:0;vgy:0;vgz:-1;templ:73;temph:76;tof:233;h:0;bat:7;baro:-77.52;time:0;agx:-3.00;agy:947.00;agz:-456.00;
pitch:-2;roll:-64;yaw:14;vgx:0;vgy:0;vgz:-1;templ:73;temph:76;tof:237;h:0;bat:7;baro:-77.47;time:0;agx:55.00;agy:903.00;agz:-443.00;
pitch:0;roll:-64;yaw:13;vgx:0;vgy:0;vgz:-1;templ:73;temph:76;tof:237;h:0;bat:7;baro:-77.37;time:0;agx:136.00;agy:875.00;agz:-464.00;
pitch:0;roll:-62;yaw:12;vgx:0;vgy:0;vgz:-1;templ:73;temph:76;tof:234;h:0;bat:7;baro:-77.52;time:0;agx:144.00;agy:842.00;agz:-480.00;
pitch:3;roll:-60;yaw:11;vgx:0;vgy:0;vgz:-1;templ:74;temph:75;tof:207;h:0;bat:7;baro:-77.46;time:0;agx:234.00;agy:811.00;agz:-510.00;
pitch:2;roll:-56;yaw:8;vgx:0;vgy:0;vgz:0;templ:74;temph:75;tof:190;h:0;bat:7;baro:-77.37;time:0;agx:335.00;agy:880.00;agz:-575.00;
pitch:-2;roll:-52;yaw:1;vgx:0;vgy:0;vgz:0;templ:74;temph:75;tof:170;h:0;bat:7;baro:-77.26;time:0;agx:202.00;agy:411.00;agz:-613.00;
pitch:-6;roll:-44;yaw:-10;vgx:0;vgy:0;vgz:1;templ:74;temph:75;tof:34;h:0;bat:7;baro:-77.41;time:0;agx:-114.00;agy:704.00;agz:-786.00;
pitch:4;roll:-39;yaw:-19;vgx:0;vgy:0;vgz:0;templ:74;temph:75;tof:10;h:0;bat:7;baro:-77.35;time:0;agx:-442.00;agy:409.00;agz:-714.00;
pitch:15;roll:-28;yaw:-21;vgx:0;vgy:0;vgz:2;templ:74;temph:75;tof:10;h:0;bat:7;baro:-77.55;time:0;agx:-91.00;agy:315.00;agz:-989.00;
pitch:20;roll:-17;yaw:-18;vgx:0;vgy:0;vgz:2;templ:74;temph:75;tof:10;h:0;bat:7;baro:-77.21;time:0;agx:-156.00;agy:153.00;agz:-850.00;
pitch:16;roll:-7;yaw:-14;vgx:0;vgy:0;vgz:2;templ:74;temph:75;tof:10;h:0;bat:7;baro:-77.53;time:0;agx:165.00;agy:129.00;agz:-1075.00;
pitch:15;roll:-3;yaw:-9;vgx:0;vgy:0;vgz:0;templ:74;temph:75;tof:10;h:0;bat:7;baro:-77.53;time:0;agx:235.00;agy:111.00;agz:-1147.00;
pitch:16;roll:-1;yaw:-7;vgx:0;vgy:0;vgz:0;templ:74;temph:75;tof:10;h:0;bat:7;baro:-77.38;time:0;agx:266.00;agy:93.00;agz:-929.00;
pitch:15;roll:-4;yaw:-5;vgx:0;vgy:0;vgz:0;templ:74;temph:76;tof:10;h:0;bat:7;baro:-77.36;time:0;agx:202.00;agy:25.00;agz:-959.00;
pitch:13;roll:-2;yaw:-5;vgx:0;vgy:0;vgz:0;templ:74;temph:76;tof:10;h:0;bat:7;baro:-77.31;time:0;agx:181.00;agy:98.00;agz:-1014.00;
pitch:11;roll:-3;yaw:-4;vgx:0;vgy:0;vgz:0;templ:74;temph:76;tof:10;h:0;bat:7;baro:-77.43;time:0;agx:217.00;agy:34.00;agz:-1004.00;
pitch:12;roll:-3;yaw:-2;vgx:0;vgy:0;vgz:0;templ:74;temph:76;tof:10;h:0;bat:7;baro:-77.31;time:0;agx:207.00;agy:30.00;agz:-933.00;
pitch:11;roll:-3;yaw:-2;vgx:0;vgy:0;vgz:0;templ:74;temph:76;tof:10;h:0;bat:7;baro:-77.41;time:0;agx:215.00;agy:18.00;agz:-984.00;
pitch:11;roll:-4;yaw:-2;vgx:0;vgy:0;vgz:0;templ:74;temph:76;tof:10;h:0;bat:7;baro:-77.56;time:0;agx:252.00;agy:67.00;agz:-978.00;
pitch:11;roll:-3;yaw:-2;vgx:0;vgy:0;vgz:0;templ:74;temph:76;tof:10;h:0;bat:7;baro:-77.69;time:0;agx:242.00;agy:83.00;agz:-990.00;
pitch:11;roll:-4;yaw:-2;vgx:0;vgy:0;vgz:0;templ:74;temph:76;tof:10;h:0;bat:7;baro:-77.37;time:0;agx:191.00;agy:38.00;agz:-973.00;
pitch:11;roll:-4;yaw:-2;vgx:0;vgy:0;vgz:0;templ:74;temph:76;tof:10;h:0;bat:7;baro:-77.47;time:0;agx:199.00;agy:69.00;agz:-986.00;
pitch:11;roll:-4;yaw:-2;vgx:0;vgy:0;vgz:0;templ:74;temph:76;tof:10;h:0;bat:7;baro:-77.46;time:0;agx:197.00;agy:71.00;agz:-992.00;
pitch:11;roll:-4;yaw:-1;vgx:0;vgy:0;vgz:0;templ:73;temph:77;tof:10;h:0;bat:7;baro:-77.54;time:0;agx:172.00;agy:48.00;agz:-969.00;
pitch:10;roll:-4;yaw:-1;vgx:0;vgy:0;vgz:0;templ:73;temph:77;tof:10;h:0;bat:7;baro:-77.31;time:0;agx:203.00;agy:64.00;agz:-961.00;
pitch:9;roll:-4;yaw:-1;vgx:0;vgy:0;vgz:0;templ:73;temph:77;tof:10;h:0;bat:7;baro:-77.22;time:0;agx:193.00;agy:68.00;agz:-995.00;
pitch:9;roll:-4;yaw:-1;vgx:0;vgy:0;vgz:0;templ:73;temph:77;tof:10;h:0;bat:7;baro:-77.44;time:0;agx:157.00;agy:71.00;agz:-969.00;
pitch:8;roll:-4;yaw:-1;vgx:0;vgy:0;vgz:0;templ:73;temph:77;tof:10;h:0;bat:7;baro:-77.25;time:0;agx:162.00;agy:51.00;agz:-993.00;
pitch:7;roll:-4;yaw:0;vgx:0;vgy:0;vgz:0;templ:73;temph:77;tof:10;h:0;bat:7;baro:-77.30;time:0;agx:146.00;agy:61.00;agz:-987.00;
pitch:7;roll:-4;yaw:-1;vgx:0;vgy:0;vgz:0;templ:73;temph:77;tof:10;h:0;bat:7;baro:-77.50;time:0;agx:121.00;agy:68.00;agz:-979.00;
pitch:7;roll:-4;yaw:-1;vgx:0;vgy:0;vgz:0;templ:73;temph:77;tof:10;h:0;bat:7;baro:-77.45;time:0;agx:135.00;agy:46.00;agz:-989.00;
pitch:6;roll:-3;yaw:0;vgx:0;vgy:0;vgz:0;templ:73;temph:77;tof:10;h:0;bat:7;baro:-77.43;time:0;agx:122.00;agy:56.00;agz:-981.00;
pitch:6;roll:-3;yaw:0;vgx:0;vgy:0;vgz:0;templ:73;temph:77;tof:10;h:0;bat:7;baro:-77.35;time:0;agx:118.00;agy:52.00;agz:-987.00;
pitch:6;roll:-3;yaw:0;vgx:0;vgy:0;vgz:0;templ:75;temph:76;tof:10;h:0;bat:7;baro:-77.34;time:0;agx:125.00;agy:42.00;agz:-994.00;
pitch:6;roll:-3;yaw:0;vgx:0;vgy:0;vgz:0;templ:75;temph:76;tof:10;h:0;bat:7;baro:-77.33;time:0;agx:112.00;agy:45.00;agz:-988.00;
pitch:6;roll:-3;yaw:0;vgx:0;vgy:0;vgz:0;templ:75;temph:76;tof:10;h:0;bat:7;baro:-77.23;time:0;agx:122.00;agy:68.00;agz:-987.00;
pitch:6;roll:-3;yaw:0;vgx:0;vgy:0;vgz:0;templ:75;temph:76;tof:10;h:0;bat:7;baro:-77.25;time:0;agx:130.00;agy:59.00;agz:-1000.00;
pitch:6;roll:-3;yaw:0;vgx:0;vgy:0;vgz:0;templ:75;temph:76;tof:10;h:0;bat:7;baro:-77.38;time:0;agx:113.00;agy:28.00;agz:-986.00;
pitch:6;roll:-3;yaw:0;vgx:0;vgy:0;vgz:0;templ:75;temph:76;tof:10;h:0;bat:7;baro:-77.26;time:0;agx:112.00;agy:44.00;agz:-993.00;
pitch:6;roll:-3;yaw:0;vgx:0;vgy:0;vgz:0;templ:75;temph:76;tof:10;h:0;bat:7;baro:-77.69;time:0;agx:108.00;agy:58.00;agz:-993.00;
pitch:6;roll:-3;yaw:0;vgx:0;vgy:0;vgz:0;templ:75;temph:76;tof:10;h:0;bat:7;baro:-77.46;time:0;agx:106.00;agy:42.00;agz:-986.00;
pitch:6;roll:-3;yaw:0;vgx:0;vgy:0;vgz:0;templ:75;temph:76;tof:10;h:0;bat:7;baro:-77.40;time:0;agx:113.00;agy:52.00;agz:-992.00;
pitch:6;roll:-3;yaw:0;vgx:0;vgy:0;vgz:0;templ:75;temph:76;tof:10;h:0;bat:7;baro:-77.28;time:0;agx:119.00;agy:50.00;agz:-991.00;
pitch:6;roll:-3;yaw:0;vgx:0;vgy:0;vgz:0;templ:75;temph:76;tof:10;h:0;bat:7;baro:-77.29;time:0;agx:124.00;agy:53.00;agz:-990.00;
pitch:6;roll:-3;yaw:0;vgx:0;vgy:0;vgz:0;templ:75;temph:76;tof:10;h:0;bat:7;baro:-77.33;time:0;agx:128.00;agy:44.00;agz:-999.00;
pitch:6;roll:-3;yaw:0;vgx:0;vgy:0;vgz:0;templ:75;temph:76;tof:10;h:0;bat:7;baro:-77.41;time:0;agx:113.00;agy:39.00;agz:-992.00;
pitch:6;roll:-2;yaw:-1;vgx:0;vgy:0;vgz:0;templ:75;temph:76;tof:10;h:0;bat:7;baro:-77.14;time:0;agx:118.00;agy:55.00;agz:-1008.00;
pitch:6;roll:-3;yaw:0;vgx:0;vgy:0;vgz:0;templ:75;temph:76;tof:10;h:0;bat:7;baro:-77.67;time:0;agx:112.00;agy:48.00;agz:-977.00;
pitch:6;roll:-3;yaw:0;vgx:0;vgy:0;vgz:0;templ:75;temph:76;tof:10;h:0;bat:7;baro:-77.46;time:0;agx:130.00;agy:48.00;agz:-991.00;
pitch:6;roll:-3;yaw:0;vgx:0;vgy:0;vgz:0;templ:75;temph:76;tof:10;h:0;bat:7;baro:-77.21;time:0;agx:126.00;agy:42.00;agz:-1001.00;
pitch:6;roll:-3;yaw:0;vgx:0;vgy:0;vgz:0;templ:75;temph:76;tof:10;h:0;bat:7;baro:-77.69;time:0;agx:130.00;agy:43.00;agz:-997.00;
pitch:6;roll:-3;yaw:0;vgx:0;vgy:0;vgz:0;templ:75;temph:76;tof:10;h:0;bat:7;baro:-77.39;time:0;agx:120.00;agy:43.00;agz:-991.00;
pitch:7;roll:-3;yaw:0;vgx:0;vgy:0;vgz:0;templ:75;temph:76;tof:10;h:0;bat:7;baro:-77.52;time:0;agx:127.00;agy:53.00;agz:-987.00;
pitch:7;roll:-3;yaw:0;vgx:0;vgy:0;vgz:0;templ:74;temph:76;tof:10;h:0;bat:7;baro:-77.34;time:0;agx:188.00;agy:78.00;agz:-1117.00;
pitch:13;roll:-6;yaw:-1;vgx:0;vgy:0;vgz:-1;templ:74;temph:76;tof:10;h:0;bat:7;baro:-77.30;time:0;agx:347.00;agy:179.00;agz:-1087.00;
pitch:23;roll:-16;yaw:-8;vgx:0;vgy:0;vgz:-2;templ:74;temph:76;tof:10;h:0;bat:7;baro:-77.32;time:0;agx:417.00;agy:188.00;agz:-845.00;
pitch:27;roll:-27;yaw:-23;vgx:0;vgy:0;vgz:-1;templ:74;temph:76;tof:10;h:0;bat:7;baro:-77.38;time:0;agx:420.00;agy:322.00;agz:-795.00;
pitch:28;roll:-40;yaw:-42;vgx:0;vgy:0;vgz:-1;templ:74;temph:76;tof:10;h:0;bat:7;baro:-77.11;time:0;agx:520.00;agy:382.00;agz:-719.00;
pitch:37;roll:-50;yaw:-68;vgx:0;vgy:0;vgz:0;templ:74;temph:76;tof:10;h:0;bat:7;baro:-77.09;time:0;agx:567.00;agy:684.00;agz:-488.00;
pitch:38;roll:-72;yaw:-106;vgx:0;vgy:0;vgz:0;templ:74;temph:76;tof:10;h:0;bat:7;baro:-77.31;time:0;agx:533.00;agy:781.00;agz:-373.00;
pitch:34;roll:-74;yaw:-111;vgx:0;vgy:0;vgz:0;templ:74;temph:76;tof:10;h:0;bat:7;baro:-77.19;time:0;agx:547.00;agy:856.00;agz:-229.00;
pitch:29;roll:-76;yaw:-114;vgx:0;vgy:0;vgz:0;templ:74;temph:76;tof:41;h:0;bat:7;baro:-77.17;time:0;agx:584.00;agy:843.00;agz:-179.00;
pitch:28;roll:-79;yaw:-118;vgx:0;vgy:0;vgz:0;templ:74;temph:76;tof:70;h:0;bat:7;baro:-77.28;time:0;agx:460.00;agy:876.00;agz:-173.00;
pitch:25;roll:-79;yaw:-119;vgx:0;vgy:0;vgz:0;templ:74;temph:77;tof:78;h:0;bat:7;baro:-77.22;time:0;agx:460.00;agy:851.00;agz:-141.00;
pitch:24;roll:-80;yaw:-119;vgx:0;vgy:0;vgz:0;templ:74;temph:77;tof:82;h:0;bat:7;baro:-77.07;time:0;agx:398.00;agy:879.00;agz:-146.00;
pitch:22;roll:-79;yaw:-119;vgx:0;vgy:0;vgz:0;templ:74;temph:77;tof:82;h:0;bat:7;baro:-77.03;time:0;agx:380.00;agy:903.00;agz:-144.00;
pitch:22;roll:-80;yaw:-119;vgx:0;vgy:0;vgz:0;templ:74;temph:77;tof:84;h:0;bat:7;baro:-77.04;time:0;agx:387.00;agy:907.00;agz:-150.00;
pitch:23;roll:-80;yaw:-119;vgx:0;vgy:0;vgz:0;templ:74;temph:77;tof:86;h:0;bat:7;baro:-77.08;time:0;agx:418.00;agy:917.00;agz:-131.00;
pitch:26;roll:-82;yaw:-120;vgx:0;vgy:0;vgz:0;templ:74;temph:77;tof:90;h:0;bat:7;baro:-77.37;time:0;agx:461.00;agy:857.00;agz:-89.00;
pitch:37;roll:-88;yaw:-118;vgx:0;vgy:0;vgz:0;templ:74;temph:77;tof:84;h:0;bat:7;baro:-77.18;time:0;agx:530.00;agy:898.00;agz:-119.00;
pitch:49;roll:-93;yaw:-119;vgx:0;vgy:0;vgz:0;templ:74;temph:77;tof:81;h:0;bat:7;baro:-77.30;time:0;agx:709.00;agy:665.00;agz:46.00;
pitch:51;roll:-93;yaw:-122;vgx:0;vgy:0;vgz:0;templ:74;temph:77;tof:85;h:0;bat:7;baro:-77.35;time:0;agx:753.00;agy:554.00;agz:37.00;
pitch:52;roll:-71;yaw:-101;vgx:0;vgy:0;vgz:1;templ:74;temph:77;tof:52;h:0;bat:7;baro:-77.14;time:0;agx:765.00;agy:589.00;agz:-215.00;
pitch:50;roll:-62;yaw:-93;vgx:0;vgy:0;vgz:1;templ:76;temph:77;tof:32;h:0;bat:7;baro:-77.12;time:0;agx:592.00;agy:589.00;agz:-387.00;
pitch:40;roll:-61;yaw:-91;vgx:0;vgy:0;vgz:2;templ:76;temph:77;tof:10;h:0;bat:7;baro:-77.20;time:0;agx:552.00;agy:718.00;agz:-553.00;
pitch:30;roll:-56;yaw:-82;vgx:0;vgy:0;vgz:1;templ:76;temph:77;tof:10;h:0;bat:7;baro:-77.34;time:0;agx:554.00;agy:906.00;agz:-813.00;
pitch:33;roll:-47;yaw:-63;vgx:0;vgy:0;vgz:-1;templ:76;temph:77;tof:10;h:0;bat:7;baro:-77.26;time:0;agx:404.00;agy:683.00;agz:-486.00;
pitch:31;roll:-40;yaw:-49;vgx:0;vgy:0;vgz:0;templ:76;temph:77;tof:10;h:0;bat:7;baro:-77.21;time:0;agx:685.00;agy:515.00;agz:-450.00;
pitch:24;roll:-28;yaw:-33;vgx:0;vgy:0;vgz:2;templ:76;temph:77;tof:10;h:0;bat:7;baro:-77.02;time:0;agx:964.00;agy:344.00;agz:-563.00;
pitch:22;roll:-17;yaw:-13;vgx:0;vgy:0;vgz:2;templ:76;temph:77;tof:10;h:0;bat:7;baro:-77.26;time:0;agx:492.00;agy:136.00;agz:-889.00;
pitch:13;roll:-13;yaw:-21;vgx:0;vgy:0;vgz:2;templ:76;temph:77;tof:10;h:0;bat:7;baro:-77.46;time:0;agx:388.00;agy:123.00;agz:-1037.00;
pitch:3;roll:-6;yaw:-28;vgx:0;vgy:0;vgz:1;templ:76;temph:77;tof:10;h:0;bat:7;baro:-77.54;time:0;agx:220.00;agy:-18.00;agz:-1014.00;
pitch:-1;roll:-1;yaw:-36;vgx:0;vgy:0;vgz:0;templ:76;temph:77;tof:10;h:0;bat:7;baro:-77.37;time:0;agx:-2.00;agy:86.00;agz:-1059.00;
pitch:-1;roll:-1;yaw:-37;vgx:0;vgy:0;vgz:0;templ:75;temph:77;tof:10;h:0;bat:7;baro:-77.31;time:0;agx:88.00;agy:319.00;agz:-1210.00;
pitch:-1;roll:-1;yaw:-37;vgx:0;vgy:0;vgz:0;templ:75;temph:77;tof:10;h:0;bat:7;baro:-77.37;time:0;agx:-9.00;agy:10.00;agz:-996.00;
pitch:-1;roll:-1;yaw:-37;vgx:0;vgy:0;vgz:0;templ:75;temph:77;tof:10;h:0;bat:7;baro:-77.45;time:0;agx:-12.00;agy:14.00;agz:-996.00;
pitch:-1;roll:-1;yaw:-37;vgx:0;vgy:0;vgz:0;templ:75;temph:77;tof:10;h:0;bat:7;baro:-77.28;time:0;agx:-11.00;agy:16.00;agz:-996.00;
pitch:-1;roll:-1;yaw:-37;vgx:0;vgy:0;vgz:0;templ:75;temph:77;tof:10;h:0;bat:7;baro:-77.57;time:0;agx:-10.00;agy:21.00;agz:-996.00;
pitch:-1;roll:-1;yaw:-37;vgx:0;vgy:0;vgz:0;templ:75;temph:77;tof:10;h:0;bat:7;baro:-77.37;time:0;agx:-8.00;agy:16.00;agz:-996.00;
pitch:-1;roll:-1;yaw:-37;vgx:0;vgy:0;vgz:0;templ:75;temph:77;tof:10;h:0;bat:7;baro:-77.42;time:0;agx:-13.00;agy:13.00;agz:-995.00;
pitch:-1;roll:-1;yaw:-37;vgx:0;vgy:0;vgz:0;templ:75;temph:77;tof:10;h:0;bat:7;baro:-77.34;time:0;agx:-14.00;agy:9.00;agz:-993.00;
pitch:-1;roll:-1;yaw:-37;vgx:0;vgy:0;vgz:0;templ:75;temph:77;tof:10;h:0;bat:7;baro:-77.22;time:0;agx:-10.00;agy:23.00;agz:-996.00;
pitch:-1;roll:-1;yaw:-37;vgx:0;vgy:0;vgz:0;templ:75;temph:77;tof:10;h:0;bat:7;baro:-77.26;time:0;agx:-10.00;agy:15.00;agz:-997.00;
pitch:-1;roll:-1;yaw:-37;vgx:0;vgy:0;vgz:0;templ:76;temph:78;tof:10;h:0;bat:7;baro:-77.56;time:0;agx:-11.00;agy:10.00;agz:-995.00;
pitch:-1;roll:-1;yaw:-37;vgx:0;vgy:0;vgz:0;templ:76;temph:78;tof:10;h:0;bat:7;baro:-77.13;time:0;agx:-10.00;agy:21.00;agz:-997.00;
pitch:0;roll:-1;yaw:-37;vgx:0;vgy:0;vgz:0;templ:76;temph:78;tof:10;h:0;bat:7;baro:-77.37;time:0;agx:-9.00;agy:19.00;agz:-1000.00;
pitch:0;roll:-1;yaw:-37;vgx:0;vgy:0;vgz:0;templ:76;temph:78;tof:10;h:0;bat:7;baro:-77.29;time:0;agx:-9.00;agy:14.00;agz:-999.00;
pitch:0;roll:-1;yaw:-37;vgx:0;vgy:0;vgz:0;templ:76;temph:78;tof:10;h:0;bat:7;baro:-77.24;time:0;agx:-10.00;agy:13.00;agz:-995.00;
pitch:0;roll:0;yaw:-37;vgx:0;vgy:0;vgz:0;templ:76;temph:78;tof:10;h:0;bat:7;baro:-77.20;time:0;agx:-10.00;agy:19.00;agz:-996.00;
pitch:0;roll:0;yaw:-37;vgx:0;vgy:0;vgz:0;templ:76;temph:78;tof:10;h:0;bat:7;baro:-77.43;time:0;agx:-8.00;agy:19.00;agz:-999.00;
pitch:0;roll:0;yaw:-37;vgx:0;vgy:0;vgz:0;templ:76;temph:78;tof:10;h:0;bat:7;baro:-77.21;time:0;agx:-9.00;agy:13.00;agz:-997.00;
pitch:0;roll:0;yaw:-37;vgx:0;vgy:0;vgz:0;templ:76;temph:78;tof:10;h:0;bat:7;baro:-77.33;time:0;agx:-10.00;agy:17.00;agz:-998.00;
pitch:0;roll:0;yaw:-37;vgx:0;vgy:0;vgz:0;templ:76;temph:78;tof:10;h:0;bat:7;baro:-77.56;time:0;agx:-10.00;agy:22.00;agz:-999.00;
pitch:0;roll:0;yaw:-37;vgx:0;vgy:0;vgz:0;templ:76;temph:78;tof:10;h:0;bat:7;baro:-77.30;time:0;agx:-10.00;agy:19.00;agz:-997.00;
pitch:0;roll:0;yaw:-37;vgx:0;vgy:0;vgz:0;templ:76;temph:78;tof:10;h:0;bat:7;baro:-77.44;time:0;agx:-11.00;agy:17.00;agz:-998.00;
pitch:0;roll:0;yaw:-37;vgx:0;vgy:0;vgz:0;templ:76;temph:78;tof:10;h:0;bat:7;baro:-77.06;time:0;agx:-9.00;agy:7.00;agz:-997.00;
pitch:0;roll:0;yaw:-37;vgx:0;vgy:0;vgz:0;templ:76;temph:78;tof:10;h:0;bat:7;baro:-77.13;time:0;agx:-9.00;agy:15.00;agz:-997.00;
pitch:0;roll:0;yaw:-37;vgx:0;vgy:0;vgz:0;templ:76;temph:78;tof:10;h:0;bat:7;baro:-77.32;time:0;agx:-11.00;agy:19.00;agz:-999.00;
pitch:0;roll:0;yaw:-37;vgx:0;vgy:0;vgz:0;templ:76;temph:78;tof:10;h:0;bat:7;baro:-77.39;time:0;agx:-10.00;agy:12.00;agz:-997.00;
pitch:0;roll:0;yaw:-37;vgx:0;vgy:0;vgz:0;templ:76;temph:78;tof:10;h:0;bat:7;baro:-77.19;time:0;agx:-8.00;agy:14.00;agz:-998.00;
pitch:0;roll:0;yaw:-37;vgx:0;vgy:0;vgz:0;templ:76;temph:78;tof:10;h:0;bat:7;baro:-77.20;time:0;agx:-9.00;agy:20.00;agz:-999.00;
pitch:0;roll:0;yaw:-37;vgx:0;vgy:0;vgz:0;templ:76;temph:78;tof:10;h:0;bat:7;baro:-77.48;time:0;agx:-10.00;agy:14.00;agz:-998.00;
pitch:0;roll:0;yaw:-37;vgx:0;vgy:0;vgz:0;templ:76;temph:78;tof:10;h:0;bat:7;baro:-77.17;time:0;agx:-10.00;agy:13.00;agz:-1000.00;
pitch:0;roll:0;yaw:-37;vgx:0;vgy:0;vgz:0;templ:76;temph:77;tof:10;h:0;bat:7;baro:-77.31;time:0;agx:-10.00;agy:15.00;agz:-997.00;
pitch:0;roll:0;yaw:-37;vgx:0;vgy:0;vgz:0;templ:76;temph:77;tof:10;h:0;bat:7;baro:-77.38;time:0;agx:-11.00;agy:17.00;agz:-997.00;
pitch:0;roll:0;yaw:-37;vgx:0;vgy:0;vgz:0;templ:76;temph:77;tof:10;h:0;bat:7;baro:-77.28;time:0;agx:-9.00;agy:14.00;agz:-998.00;
pitch:0;roll:0;yaw:-37;vgx:0;vgy:0;vgz:0;templ:76;temph:77;tof:10;h:0;bat:7;baro:-77.66;time:0;agx:-9.00;agy:20.00;agz:-996.00;
pitch:0;roll:0;yaw:-37;vgx:0;vgy:0;vgz:0;templ:76;temph:77;tof:10;h:0;bat:7;baro:-77.38;time:0;agx:-9.00;agy:13.00;agz:-998.00;
pitch:0;roll:0;yaw:-37;vgx:0;vgy:0;vgz:0;templ:76;temph:77;tof:10;h:0;bat:7;baro:-77.24;time:0;agx:-9.00;agy:15.00;agz:-998.00;
pitch:0;roll:0;yaw:-37;vgx:0;vgy:0;vgz:0;templ:76;temph:77;tof:10;h:0;bat:7;baro:-77.29;time:0;agx:-11.00;agy:15.00;agz:-999.00;
pitch:0;roll:0;yaw:-37;vgx:0;vgy:0;vgz:0;templ:76;temph:77;tof:10;h:0;bat:7;baro:-77.01;time:0;agx:-10.00;agy:13.00;agz:-997.00;
pitch:0;roll:0;yaw:-37;vgx:0;vgy:0;vgz:0;templ:76;temph:77;tof:10;h:0;bat:7;baro:-77.07;time:0;agx:-10.00;agy:14.00;agz:-997.00;
pitch:0;roll:0;yaw:-37;vgx:0;vgy:0;vgz:0;templ:76;temph:77;tof:10;h:0;bat:7;baro:-77.22;time:0;agx:-10.00;agy:19.00;agz:-998.00;
pitch:0;roll:0;yaw:-37;vgx:0;vgy:0;vgz:0;templ:76;temph:77;tof:10;h:0;bat:7;baro:-77.13;time:0;agx:-9.00;agy:14.00;agz:-997.00;
pitch:0;roll:0;yaw:-37;vgx:0;vgy:0;vgz:0;templ:76;temph:77;tof:10;h:0;bat:7;baro:-76.80;time:0;agx:-9.00;agy:10.00;agz:-996.00;
pitch:0;roll:0;yaw:-37;vgx:0;vgy:0;vgz:0;templ:76;temph:77;tof:10;h:0;bat:7;baro:-77.22;time:0;agx:-10.00;agy:14.00;agz:-999.00;
pitch:0;roll:0;yaw:-37;vgx:0;vgy:0;vgz:0;templ:76;temph:77;tof:10;h:0;bat:7;baro:-77.45;time:0;agx:-9.00;agy:16.00;agz:-996.00;
pitch:0;roll:0;yaw:-37;vgx:0;vgy:0;vgz:0;templ:76;temph:77;tof:10;h:0;bat:7;baro:-77.29;time:0;agx:-10.00;agy:14.00;agz:-998.00;
pitch:0;roll:0;yaw:-37;vgx:0;vgy:0;vgz:0;templ:76;temph:77;tof:10;h:0;bat:7;baro:-77.24;time:0;agx:-10.00;agy:14.00;agz:-996.00;
pitch:0;roll:0;yaw:-37;vgx:0;vgy:0;vgz:0;templ:76;temph:77;tof:10;h:0;bat:7;baro:-77.24;time:0;agx:-11.00;agy:20.00;agz:-997.00;
pitch:0;roll:0;yaw:-37;vgx:0;vgy:0;vgz:0;templ:76;temph:77;tof:10;h:0;bat:7;baro:-76.98;time:0;agx:-9.00;agy:15.00;agz:-997.00;
pitch:0;roll:0;yaw:-37;vgx:0;vgy:0;vgz:0;templ:76;temph:77;tof:10;h:0;bat:7;baro:-77.31;time:0;agx:-10.00;agy:11.00;agz:-998.00;
pitch:0;roll:0;yaw:-37;vgx:0;vgy:0;vgz:0;templ:76;temph:77;tof:10;h:0;bat:7;baro:-77.34;time:0;agx:-12.00;agy:18.00;agz:-998.00;
pitch:0;roll:0;yaw:-37;vgx:0;vgy:0;vgz:0;templ:76;temph:78;tof:10;h:0;bat:7;baro:-77.13;time:0;agx:-11.00;agy:20.00;agz:-996.00;
pitch:0;roll:0;yaw:-37;vgx:0;vgy:0;vgz:0;templ:76;temph:78;tof:10;h:0;bat:7;baro:-77.36;time:0;agx:-10.00;agy:9.00;agz:-999.00;
pitch:0;roll:0;yaw:-37;vgx:0;vgy:0;vgz:0;templ:76;temph:78;tof:10;h:0;bat:7;baro:-77.08;time:0;agx:-10.00;agy:14.00;agz:-998.00;
pitch:0;roll:0;yaw:-37;vgx:0;vgy:0;vgz:0;templ:76;temph:78;tof:10;h:0;bat:7;baro:-77.05;time:0;agx:-10.00;agy:21.00;agz:-999.00;
pitch:0;roll:0;yaw:-37;vgx:0;vgy:0;vgz:0;templ:76;temph:78;tof:10;h:0;bat:7;baro:-76.88;time:0;agx:-11.00;agy:17.00;agz:-998.00;
pitch:0;roll:0;yaw:-37;vgx:0;vgy:0;vgz:0;templ:76;temph:78;tof:10;h:0;bat:7;baro:-77.12;time:0;agx:-10.00;agy:8.00;agz:-996.00;
pitch:0;roll:0;yaw:-37;vgx:0;vgy:0;vgz:0;templ:76;temph:78;tof:10;h:0;bat:7;baro:-77.38;time:0;agx:-10.00;agy:21.00;agz:-998.00;
pitch:0;roll:0;yaw:-37;vgx:0;vgy:0;vgz:0;templ:76;temph:78;tof:10;h:0;bat:7;baro:-76.92;time:0;agx:-10.00;agy:15.00;agz:-998.00;
pitch:0;roll:0;yaw:-37;vgx:0;vgy:0;vgz:0;templ:76;temph:78;tof:10;h:0;bat:7;baro:-77.03;time:0;agx:-9.00;agy:9.00;agz:-999.00;
pitch:0;roll:0;yaw:-37;vgx:0;vgy:0;vgz:0;templ:76;temph:78;tof:10;h:0;bat:7;baro:-77.24;time:0;agx:-10.00;agy:15.00;agz:-999.00;
pitch:0;roll:0;yaw:-37;vgx:0;vgy:0;vgz:0;templ:76;temph:78;tof:10;h:0;bat:7;baro:-77.00;time:0;agx:-10.00;agy:16.00;agz:-999.00;
pitch:0;roll:0;yaw:-37;vgx:0;vgy:0;vgz:0;templ:76;temph:78;tof:10;h:0;bat:7;baro:-77.25;time:0;agx:-10.00;agy:16.00;agz:-999.00;
pitch:0;roll:0;yaw:-37;vgx:0;vgy:0;vgz:0;templ:76;temph:78;tof:10;h:0;bat:7;baro:-77.12;time:0;agx:-9.00;agy:13.00;agz:-999.00;
pitch:0;roll:0;yaw:-37;vgx:0;vgy:0;vgz:0;templ:76;temph:78;tof:10;h:0;bat:7;baro:-77.32;time:0;agx:-11.00;agy:18.00;agz:-999.00;
pitch:0;roll:0;yaw:-37;vgx:0;vgy:0;vgz:0;templ:76;temph:78;tof:10;h:0;bat:7;baro:-76.98;time:0;agx:-9.00;agy:19.00;agz:-1000.00;
pitch:0;roll:0;yaw:-37;vgx:0;vgy:0;vgz:0;templ:76;temph:78;tof:10;h:0;bat:7;baro:-77.27;time:0;agx:-10.00;agy:11.00;agz:-998.00;
pitch:0;roll:0;yaw:-37;vgx:0;vgy:0;vgz:0;templ:76;temph:78;tof:10;h:0;bat:7;baro:-77.43;time:0;agx:-11.00;agy:14.00;agz:-996.00;
pitch:0;roll:0;yaw:-37;vgx:0;vgy:0;vgz:0;templ:76;temph:78;tof:10;h:0;bat:7;baro:-77.33;time:0;agx:-11.00;agy:16.00;agz:-996.00;
pitch:0;roll:0;yaw:-37;vgx:0;vgy:0;vgz:0;templ:76;temph:78;tof:10;h:0;bat:7;baro:-77.33;time:0;agx:-10.00;agy:19.00;agz:-998.00;
pitch:0;roll:0;yaw:-37;vgx:0;vgy:0;vgz:0;templ:76;temph:78;tof:10;h:0;bat:7;baro:-76.98;time:0;agx:-7.00;agy:19.00;agz:-1000.00;
pitch:0;roll:0;yaw:-37;vgx:0;vgy:0;vgz:0;templ:77;temph:79;tof:10;h:0;bat:7;baro:-77.11;time:0;agx:-11.00;agy:12.00;agz:-998.00;
pitch:0;roll:0;yaw:-37;vgx:0;vgy:0;vgz:0;templ:77;temph:79;tof:10;h:0;bat:7;baro:-77.13;time:0;agx:-9.00;agy:11.00;agz:-996.00;
pitch:0;roll:0;yaw:-37;vgx:0;vgy:0;vgz:0;templ:77;temph:79;tof:10;h:0;bat:7;baro:-77.16;time:0;agx:-11.00;agy:18.00;agz:-997.00;
pitch:0;roll:0;yaw:-37;vgx:0;vgy:0;vgz:0;templ:77;temph:79;tof:10;h:0;bat:7;baro:-77.06;time:0;agx:-8.00;agy:21.00;agz:-999.00;
pitch:0;roll:0;yaw:-37;vgx:0;vgy:0;vgz:0;templ:77;temph:79;tof:10;h:0;bat:7;baro:-77.12;time:0;agx:-10.00;agy:17.00;agz:-994.00;
pitch:0;roll:0;yaw:-37;vgx:0;vgy:0;vgz:0;templ:77;temph:79;tof:10;h:0;bat:7;baro:-77.32;time:0;agx:-10.00;agy:8.00;agz:-994.00;
pitch:0;roll:0;yaw:-37;vgx:0;vgy:0;vgz:0;templ:77;temph:79;tof:10;h:0;bat:7;baro:-76.92;time:0;agx:-9.00;agy:16.00;agz:-998.00;
pitch:0;roll:0;yaw:-37;vgx:0;vgy:0;vgz:0;templ:77;temph:79;tof:10;h:0;bat:7;baro:-77.00;time:0;agx:-11.00;agy:38.00;agz:-1020.00;
pitch:0;roll:0;yaw:-37;vgx:0;vgy:0;vgz:0;templ:77;temph:79;tof:10;h:0;bat:7;baro:-76.92;time:0;agx:-9.00;agy:31.00;agz:-996.00;
pitch:0;roll:0;yaw:-37;vgx:0;vgy:0;vgz:0;templ:77;temph:79;tof:10;h:0;bat:7;baro:-77.19;time:0;agx:-9.00;agy:5.00;agz:-992.00;
pitch:0;roll:0;yaw:-37;vgx:0;vgy:0;vgz:0;templ:77;temph:78;tof:10;h:0;bat:7;baro:-77.39;time:0;agx:-7.00;agy:2.00;agz:-994.00;
pitch:0;roll:0;yaw:-37;vgx:0;vgy:0;vgz:0;templ:77;temph:78;tof:10;h:0;bat:7;baro:-76.87;time:0;agx:-10.00;agy:26.00;agz:-1001.00;
pitch:0;roll:0;yaw:-37;vgx:0;vgy:0;vgz:0;templ:77;temph:78;tof:10;h:0;bat:7;baro:-76.89;time:0;agx:-9.00;agy:17.00;agz:-998.00;
pitch:0;roll:0;yaw:-37;vgx:0;vgy:0;vgz:0;templ:77;temph:78;tof:10;h:0;bat:7;baro:-76.90;time:0;agx:-10.00;agy:7.00;agz:-995.00;
pitch:0;roll:0;yaw:-37;vgx:0;vgy:0;vgz:0;templ:77;temph:78;tof:10;h:0;bat:7;baro:-77.02;time:0;agx:-11.00;agy:15.00;agz:-999.00;
pitch:0;roll:0;yaw:-37;vgx:0;vgy:0;vgz:0;templ:77;temph:78;tof:10;h:0;bat:7;baro:-77.03;time:0;agx:-8.00;agy:12.00;agz:-996.00;
pitch:0;roll:0;yaw:-37;vgx:0;vgy:0;vgz:0;templ:77;temph:78;tof:10;h:0;bat:7;baro:-77.00;time:0;agx:-12.00;agy:15.00;agz:-997.00;
pitch:0;roll:0;yaw:-37;vgx:0;vgy:0;vgz:0;templ:77;temph:78;tof:10;h:0;bat:7;baro:-76.95;time:0;agx:-8.00;agy:15.00;agz:-998.00;
pitch:0;roll:0;yaw:-37;vgx:0;vgy:0;vgz:0;templ:77;temph:78;tof:10;h:0;bat:7;baro:-77.03;time:0;agx:-9.00;agy:11.00;agz:-997.00;
pitch:0;roll:0;yaw:-37;vgx:0;vgy:0;vgz:0;templ:77;temph:78;tof:10;h:0;bat:7;baro:-77.00;time:0;agx:-11.00;agy:14.00;agz:-997.00;
pitch:0;roll:0;yaw:-37;vgx:0;vgy:0;vgz:0;templ:77;temph:79;tof:10;h:0;bat:7;baro:-77.16;time:0;agx:-9.00;agy:16.00;agz:-997.00;
pitch:0;roll:0;yaw:-37;vgx:0;vgy:0;vgz:0;templ:77;temph:79;tof:10;h:0;bat:7;baro:-77.18;time:0;agx:-11.00;agy:15.00;agz:-998.00;
pitch:0;roll:0;yaw:-37;vgx:0;vgy:0;vgz:0;templ:77;temph:79;tof:10;h:0;bat:7;baro:-77.17;time:0;agx:-10.00;agy:16.00;agz:-997.00;
pitch:0;roll:0;yaw:-37;vgx:0;vgy:0;vgz:0;templ:77;temph:79;tof:10;h:0;bat:7;baro:-77.19;time:0;agx:-9.00;agy:12.00;agz:-997.00;
pitch:0;roll:0;yaw:-37;vgx:0;vgy:0;vgz:0;templ:77;temph:79;tof:10;h:0;bat:7;baro:-76.97;time:0;agx:-8.00;agy:17.00;agz:-998.00;
pitch:0;roll:0;yaw:-37;vgx:0;vgy:0;vgz:0;templ:77;temph:79;tof:10;h:0;bat:7;baro:-77.00;time:0;agx:-12.00;agy:11.00;agz:-998.00;
pitch:0;roll:0;yaw:-37;vgx:0;vgy:0;vgz:0;templ:77;temph:79;tof:10;h:0;bat:7;baro:-76.93;time:0;agx:-11.00;agy:16.00;agz:-997.00;
pitch:0;roll:0;yaw:-37;vgx:0;vgy:0;vgz:0;templ:77;temph:79;tof:10;h:0;bat:7;baro:-77.07;time:0;agx:-10.00;agy:14.00;agz:-997.00;
pitch:0;roll:0;yaw:-37;vgx:0;vgy:0;vgz:0;templ:77;temph:79;tof:10;h:0;bat:7;baro:-76.84;time:0;agx:-8.00;agy:13.00;agz:-996.00;
pitch:0;roll:0;yaw:-37;vgx:0;vgy:0;vgz:0;templ:77;temph:79;tof:10;h:0;bat:7;baro:-77.14;time:0;agx:-9.00;agy:18.00;agz:-998.00;
pitch:0;roll:0;yaw:-37;vgx:0;vgy:0;vgz:0;templ:77;temph:79;tof:10;h:0;bat:7;baro:-77.05;time:0;agx:-11.00;agy:16.00;agz:-998.00;
pitch:0;roll:0;yaw:-37;vgx:0;vgy:0;vgz:0;templ:77;temph:79;tof:10;h:0;bat:7;baro:-77.12;time:0;agx:-9.00;agy:12.00;agz:-995.00;
pitch:0;roll:0;yaw:-37;vgx:0;vgy:0;vgz:0;templ:77;temph:79;tof:10;h:0;bat:7;baro:-76.89;time:0;agx:-10.00;agy:15.00;agz:-999.00;
pitch:0;roll:0;yaw:-37;vgx:0;vgy:0;vgz:0;templ:77;temph:79;tof:10;h:0;bat:7;baro:-76.99;time:0;agx:-9.00;agy:16.00;agz:-996.00;
pitch:0;roll:0;yaw:-37;vgx:0;vgy:0;vgz:0;templ:77;temph:79;tof:10;h:0;bat:7;baro:-76.87;time:0;agx:-9.00;agy:15.00;agz:-1000.00;
pitch:0;roll:0;yaw:-37;vgx:0;vgy:0;vgz:0;templ:77;temph:79;tof:10;h:0;bat:7;baro:-77.05;time:0;agx:-9.00;agy:14.00;agz:-999.00;
pitch:0;roll:0;yaw:-37;vgx:0;vgy:0;vgz:0;templ:77;temph:79;tof:10;h:0;bat:7;baro:-76.87;time:0;agx:-9.00;agy:19.00;agz:-999.00;
pitch:0;roll:0;yaw:-37;vgx:0;vgy:0;vgz:0;templ:77;temph:79;tof:10;h:0;bat:7;baro:-76.95;time:0;agx:-9.00;agy:13.00;agz:-998.00;
pitch:0;roll:0;yaw:-37;vgx:0;vgy:0;vgz:0;templ:77;temph:79;tof:10;h:0;bat:7;baro:-77.00;time:0;agx:-10.00;agy:13.00;agz:-997.00;
pitch:0;roll:0;yaw:-37;vgx:0;vgy:0;vgz:0;templ:77;temph:79;tof:10;h:0;bat:7;baro:-76.78;time:0;agx:-10.00;agy:21.00;agz:-995.00;
pitch:0;roll:0;yaw:-37;vgx:0;vgy:0;vgz:0;templ:77;temph:80;tof:10;h:0;bat:7;baro:-77.25;time:0;agx:-11.00;agy:15.00;agz:-998.00;
pitch:0;roll:0;yaw:-37;vgx:0;vgy:0;vgz:0;templ:77;temph:80;tof:10;h:0;bat:7;baro:-77.31;time:0;agx:-10.00;agy:14.00;agz:-997.00;
pitch:0;roll:0;yaw:-37;vgx:0;vgy:0;vgz:0;templ:77;temph:80;tof:10;h:0;bat:7;baro:-76.93;time:0;agx:-8.00;agy:17.00;agz:-997.00;
pitch:0;roll:0;yaw:-37;vgx:0;vgy:0;vgz:0;templ:77;temph:80;tof:10;h:0;bat:7;baro:-77.11;time:0;agx:-8.00;agy:12.00;agz:-997.00;
pitch:0;roll:0;yaw:-37;vgx:0;vgy:0;vgz:0;templ:77;temph:80;tof:10;h:0;bat:7;baro:-77.03;time:0;agx:-11.00;agy:18.00;agz:-996.00;
pitch:0;roll:0;yaw:-37;vgx:0;vgy:0;vgz:0;templ:77;temph:80;tof:10;h:0;bat:7;baro:-77.28;time:0;agx:-9.00;agy:16.00;agz:-998.00;
pitch:0;roll:0;yaw:-37;vgx:0;vgy:0;vgz:0;templ:77;temph:80;tof:10;h:0;bat:7;baro:-77.21;time:0;agx:-11.00;agy:14.00;agz:-999.00;
