pitch:0;roll:1;yaw:0;vgx:0;vgy:0;vgz:0;templ:63;temph:65;tof:10;h:0;bat:83;baro:-86.04;time:0;agx:-7.00;agy:-32.00;agz:-998.00;
pitch:0;roll:1;yaw:0;vgx:0;vgy:0;vgz:0;templ:63;temph:65;tof:10;h:0;bat:83;baro:-85.88;time:0;agx:-7.00;agy:-32.00;agz:-1000.00;
pitch:0;roll:1;yaw:0;vgx:0;vgy:0;vgz:0;templ:63;temph:65;tof:10;h:0;bat:83;baro:-86.04;time:0;agx:-6.00;agy:-30.00;agz:-998.00;
pitch:0;roll:1;yaw:0;vgx:0;vgy:0;vgz:0;templ:63;temph:65;tof:10;h:0;bat:83;baro:-85.80;time:0;agx:-6.00;agy:-33.00;agz:-997.00;
pitch:0;roll:1;yaw:0;vgx:0;vgy:0;vgz:0;templ:63;temph:65;tof:10;h:0;bat:83;baro:-86.02;time:0;agx:-8.00;agy:-33.00;agz:-998.00;
pitch:0;roll:1;yaw:0;vgx:0;vgy:0;vgz:0;templ:63;temph:65;tof:10;h:0;bat:83;baro:-85.75;time:0;agx:-7.00;agy:-32.00;agz:-1000.00;
pitch:0;roll:1;yaw:0;vgx:0;vgy:0;vgz:0;templ:63;temph:65;tof:10;h:0;bat:83;baro:-85.67;time:0;agx:-7.00;agy:-33.00;agz:-998.00;
pitch:0;roll:1;yaw:0;vgx:0;vgy:0;vgz:0;templ:63;temph:65;tof:10;h:0;bat:83;baro:-85.93;time:0;agx:-7.00;agy:-33.00;agz:-999.00;
pitch:0;roll:1;yaw:0;vgx:0;vgy:0;vgz:0;templ:63;temph:65;tof:10;h:0;bat:83;baro:-85.91;time:0;agx:-8.00;agy:-32.00;agz:-999.00;
pitch:0;roll:1;yaw:0;vgx:0;vgy:0;vgz:0;templ:63;temph:65;tof:10;h:0;bat:83;baro:-85.94;time:0;agx:-7.00;agy:-33.00;agz:-1000.00;
pitch:0;roll:1;yaw:0;vgx:0;vgy:0;vgz:0;templ:63;temph:65;tof:10;h:0;bat:83;baro:-85.98;time:0;agx:-7.00;agy:-32.00;agz:-997.00;
pitch:0;roll:1;yaw:0;vgx:0;vgy:0;vgz:0;templ:63;temph:65;tof:10;h:0;bat:83;baro:-86.03;time:0;agx:-5.00;agy:-33.00;agz:-997.00;
pitch:0;roll:1;yaw:0;vgx:0;vgy:0;vgz:0;templ:63;temph:65;tof:10;h:0;bat:83;baro:-85.92;time:0;agx:-7.00;agy:-31.00;agz:-996.00;
pitch:0;roll:1;yaw:0;vgx:0;vgy:0;vgz:0;templ:63;temph:65;tof:10;h:0;bat:83;baro:-85.82;time:0;agx:-6.00;agy:-31.00;agz:-998.00;
pitch:0;roll:1;yaw:0;vgx:0;vgy:0;vgz:0;templ:63;temph:65;tof:10;h:0;bat:83;baro:-85.81;time:0;agx:-6.00;agy:-33.00;agz:-997.00;
pitch:0;roll:1;yaw:0;vgx:0;vgy:0;vgz:0;templ:63;temph:65;tof:10;h:0;bat:83;baro:-86.06;time:0;agx:-8.00;agy:-32.00;agz:-999.00;
pitch:0;roll:1;yaw:0;vgx:0;vgy:0;vgz:0;templ:63;temph:65;tof:10;h:0;bat:83;baro:-85.66;time:0;agx:-6.00;agy:-32.00;agz:-996.00;
pitch:0;roll:1;yaw:0;vgx:0;vgy:0;vgz:0;templ:63;temph:65;tof:10;h:0;bat:83;baro:-85.74;time:0;agx:-7.00;agy:-31.00;agz:-998.00;
pitch:0;roll:1;yaw:0;vgx:0;vgy:0;vgz:0;templ:63;temph:65;tof:10;h:0;bat:83;baro:-86.01;time:0;agx:-7.00;agy:-32.00;agz:-998.00;
pitch:0;roll:1;yaw:0;vgx:0;vgy:0;vgz:0;templ:64;temph:65;tof:10;h:0;bat:83;baro:-85.97;time:0;agx:-7.00;agy:-32.00;agz:-997.00;
pitch:0;roll:1;yaw:0;vgx:0;vgy:0;vgz:0;templ:64;temph:65;tof:10;h:0;bat:83;baro:-86.12;time:0;agx:-7.00;agy:-32.00;agz:-996.00;
pitch:0;roll:1;yaw:0;vgx:0;vgy:0;vgz:0;templ:64;temph:65;tof:10;h:0;bat:83;baro:-86.13;time:0;agx:-6.00;agy:-33.00;agz:-999.00;
pitch:0;roll:1;yaw:0;vgx:0;vgy:0;vgz:0;templ:64;temph:65;tof:10;h:0;bat:83;baro:-85.86;time:0;agx:-7.00;agy:-32.00;agz:-999.00;
pitch:0;roll:1;yaw:0;vgx:0;vgy:0;vgz:0;templ:64;temph:65;tof:10;h:0;bat:83;baro:-86.22;time:0;agx:-7.00;agy:-33.00;agz:-998.00;
pitch:0;roll:1;yaw:0;vgx:0;vgy:0;vgz:0;templ:64;temph:65;tof:10;h:0;bat:83;baro:-86.07;time:0;agx:-5.00;agy:-33.00;agz:-999.00;
pitch:0;roll:1;yaw:0;vgx:0;vgy:0;vgz:0;templ:64;temph:65;tof:10;h:0;bat:83;baro:-85.97;time:0;agx:-6.00;agy:-32.00;agz:-997.00;
pitch:0;roll:1;yaw:0;vgx:0;vgy:0;vgz:0;templ:64;temph:65;tof:10;h:0;bat:83;baro:-85.92;time:0;agx:-7.00;agy:-33.00;agz:-998.00;
pitch:0;roll:1;yaw:0;vgx:0;vgy:0;vgz:0;templ:64;temph:65;tof:10;h:0;bat:83;baro:-85.99;time:0;agx:-7.00;agy:-32.00;agz:-998.00;
pitch:0;roll:1;yaw:0;vgx:0;vgy:0;vgz:0;templ:64;temph:65;tof:10;h:0;bat:83;baro:-86.02;time:0;agx:-6.00;agy:-32.00;agz:-997.00;
pitch:0;roll:1;yaw:0;vgx:0;vgy:0;vgz:0;templ:64;temph:65;tof:10;h:0;bat:83;baro:-85.68;time:0;agx:-7.00;agy:-32.00;agz:-999.00;
pitch:0;roll:1;yaw:0;vgx:0;vgy:0;vgz:0;templ:64;temph:65;tof:10;h:0;bat:83;baro:-85.79;time:0;agx:-6.00;agy:-32.00;agz:-997.00;
pitch:0;roll:1;yaw:0;vgx:0;vgy:0;vgz:0;templ:64;temph:65;tof:10;h:0;bat:83;baro:-85.86;time:0;agx:-6.00;agy:-32.00;agz:-997.00;
pitch:0;roll:1;yaw:0;vgx:0;vgy:0;vgz:0;templ:64;temph:65;tof:10;h:0;bat:83;baro:-86.00;time:0;agx:-8.00;agy:-33.00;agz:-997.00;
pitch:0;roll:1;yaw:0;vgx:0;vgy:0;vgz:0;templ:64;temph:65;tof:10;h:0;bat:83;baro:-85.79;time:0;agx:-4.00;agy:-30.00;agz:-998.00;
pitch:0;roll:1;yaw:0;vgx:0;vgy:0;vgz:0;templ:64;temph:65;tof:10;h:0;bat:83;baro:-85.71;time:0;agx:-7.00;agy:-32.00;agz:-1000.00;
pitch:0;roll:1;yaw:0;vgx:0;vgy:0;vgz:0;templ:64;temph:65;tof:10;h:0;bat:83;baro:-85.92;time:0;agx:-7.00;agy:-32.00;agz:-997.00;
pitch:0;roll:1;yaw:0;vgx:0;vgy:0;vgz:0;templ:64;temph:65;tof:10;h:0;bat:83;baro:-85.69;time:0;agx:-7.00;agy:-31.00;agz:-997.00;
pitch:0;roll:1;yaw:0;vgx:0;vgy:0;vgz:0;templ:64;temph:65;tof:10;h:0;bat:83;baro:-85.92;time:0;agx:-7.00;agy:-32.00;agz:-997.00;
pitch:0;roll:1;yaw:0;vgx:0;vgy:0;vgz:0;templ:64;temph:65;tof:10;h:0;bat:83;baro:-85.80;time:0;agx:-8.00;agy:-31.00;agz:-998.00;
pitch:0;roll:1;yaw:0;vgx:0;vgy:0;vgz:0;templ:64;temph:66;tof:10;h:0;bat:83;baro:-86.08;time:0;agx:-5.00;agy:-32.00;agz:-996.00;
pitch:0;roll:1;yaw:0;vgx:0;vgy:0;vgz:0;templ:64;temph:66;tof:10;h:0;bat:83;baro:-85.82;time:0;agx:-6.00;agy:-34.00;agz:-997.00;
pitch:0;roll:1;yaw:0;vgx:0;vgy:0;vgz:0;templ:64;temph:66;tof:10;h:0;bat:83;baro:-85.97;time:0;agx:-6.00;agy:-32.00;agz:-998.00;
pitch:0;roll:1;yaw:0;vgx:0;vgy:0;vgz:0;templ:64;temph:66;tof:10;h:0;bat:83;baro:-85.80;time:0;agx:-6.00;agy:-31.00;agz:-998.00;
pitch:0;roll:1;yaw:0;vgx:0;vgy:0;vgz:0;templ:64;temph:66;tof:10;h:0;bat:83;baro:-86.08;time:0;agx:-5.00;agy:-32.00;agz:-997.00;
pitch:0;roll:1;yaw:0;vgx:0;vgy:0;vgz:0;templ:64;temph:66;tof:10;h:0;bat:83;baro:-86.09;time:0;agx:-6.00;agy:-32.00;agz:-998.00;
pitch:0;roll:1;yaw:0;vgx:0;vgy:0;vgz:0;templ:64;temph:66;tof:10;h:0;bat:83;baro:-86.01;time:0;agx:-7.00;agy:-31.00;agz:-999.00;
pitch:0;roll:1;yaw:0;vgx:0;vgy:0;vgz:0;templ:64;temph:66;tof:10;h:0;bat:83;baro:-85.83;time:0;agx:-7.00;agy:-31.00;agz:-997.00;
pitch:0;roll:1;yaw:0;vgx:0;vgy:0;vgz:0;templ:64;temph:66;tof:10;h:0;bat:83;baro:-86.12;time:0;agx:-6.00;agy:-30.00;agz:-997.00;
pitch:0;roll:1;yaw:0;vgx:0;vgy:0;vgz:0;templ:64;temph:66;tof:10;h:0;bat:83;baro:-85.95;time:0;agx:-7.00;agy:-31.00;agz:-998.00;
pitch:0;roll:1;yaw:0;vgx:0;vgy:0;vgz:0;templ:64;temph:66;tof:10;h:0;bat:83;baro:-85.90;time:0;agx:-6.00;agy:-31.00;agz:-997.00;
pitch:0;roll:1;yaw:0;vgx:0;vgy:0;vgz:0;templ:64;temph:66;tof:10;h:0;bat:83;baro:-85.76;time:0;agx:-5.00;agy:-31.00;agz:-998.00;
pitch:0;roll:1;yaw:0;vgx:0;vgy:0;vgz:0;templ:64;temph:66;tof:10;h:0;bat:83;baro:-85.93;time:0;agx:-8.00;agy:-32.00;agz:-999.00;
pitch:0;roll:1;yaw:0;vgx:0;vgy:0;vgz:0;templ:64;temph:66;tof:10;h:0;bat:83;baro:-86.22;time:0;agx:-6.00;agy:-33.00;agz:-997.00;
pitch:0;roll:1;yaw:0;vgx:0;vgy:0;vgz:0;templ:64;temph:66;tof:10;h:0;bat:83;baro:-85.93;time:0;agx:-7.00;agy:-32.00;agz:-996.00;
pitch:0;roll:1;yaw:0;vgx:0;vgy:0;vgz:0;templ:64;temph:66;tof:10;h:0;bat:83;baro:-85.91;time:0;agx:-6.00;agy:-32.00;agz:-997.00;
pitch:0;roll:1;yaw:0;vgx:0;vgy:0;vgz:0;templ:64;temph:66;tof:10;h:0;bat:83;baro:-85.95;time:0;agx:-6.00;agy:-33.00;agz:-997.00;
pitch:0;roll:1;yaw:0;vgx:0;vgy:0;vgz:0;templ:64;temph:66;tof:10;h:0;bat:83;baro:-86.30;time:0;agx:-7.00;agy:-32.00;agz:-997.00;
pitch:0;roll:1;yaw:0;vgx:0;vgy:0;vgz:0;templ:64;temph:66;tof:10;h:0;bat:83;baro:-85.85;time:0;agx:-6.00;agy:-32.00;agz:-998.00;
pitch:0;roll:1;yaw:0;vgx:0;vgy:0;vgz:0;templ:64;temph:66;tof:10;h:0;bat:83;baro:-85.93;time:0;agx:-7.00;agy:-31.00;agz:-994.00;
pitch:0;roll:1;yaw:0;vgx:0;vgy:0;vgz:0;templ:65;temph:67;tof:10;h:0;bat:83;baro:-86.01;time:0;agx:-6.00;agy:-33.00;agz:-996.00;
pitch:0;roll:1;yaw:0;vgx:0;vgy:0;vgz:0;templ:65;temph:67;tof:10;h:0;bat:83;baro:-85.89;time:0;agx:-7.00;agy:-32.00;agz:-996.00;
pitch:0;roll:1;yaw:0;vgx:0;vgy:0;vgz:0;templ:65;temph:67;tof:10;h:0;bat:83;baro:-86.09;time:0;agx:-6.00;agy:-31.00;agz:-996.00;
pitch:0;roll:1;yaw:0;vgx:0;vgy:0;vgz:0;templ:65;temph:67;tof:10;h:0;bat:83;baro:-85.94;time:0;agx:-5.00;agy:-34.00;agz:-996.00;
pitch:0;roll:1;yaw:0;vgx:0;vgy:0;vgz:0;templ:65;temph:67;tof:10;h:0;bat:83;baro:-85.57;time:0;agx:-7.00;agy:-33.00;agz:-999.00;
pitch:0;roll:1;yaw:0;vgx:0;vgy:0;vgz:0;templ:65;temph:67;tof:10;h:0;bat:83;baro:-86.03;time:0;agx:-5.00;agy:-31.00;agz:-996.00;
pitch:0;roll:1;yaw:0;vgx:0;vgy:0;vgz:0;templ:65;temph:67;tof:10;h:0;bat:83;baro:-85.88;time:0;agx:-6.00;agy:-31.00;agz:-998.00;
pitch:0;roll:1;yaw:0;vgx:0;vgy:0;vgz:0;templ:65;temph:67;tof:10;h:0;bat:83;baro:-85.98;time:0;agx:-8.00;agy:-32.00;agz:-999.00;
pitch:0;roll:1;yaw:0;vgx:0;vgy:0;vgz:0;templ:65;temph:67;tof:10;h:0;bat:83;baro:-85.81;time:0;agx:-8.00;agy:-31.00;agz:-999.00;
pitch:0;roll:1;yaw:0;vgx:0;vgy:0;vgz:0;templ:65;temph:67;tof:10;h:0;bat:83;baro:-85.76;time:0;agx:-6.00;agy:-33.00;agz:-998.00;
pitch:0;roll:1;yaw:0;vgx:0;vgy:0;vgz:0;templ:65;temph:67;tof:10;h:0;bat:83;baro:-85.98;time:0;agx:-7.00;agy:-31.00;agz:-997.00;
pitch:0;roll:1;yaw:0;vgx:0;vgy:0;vgz:0;templ:65;temph:67;tof:10;h:0;bat:83;baro:-85.99;time:0;agx:-6.00;agy:-31.00;agz:-997.00;
pitch:0;roll:1;yaw:0;vgx:0;vgy:0;vgz:0;templ:65;temph:67;tof:10;h:0;bat:83;baro:-85.99;time:0;agx:-7.00;agy:-31.00;agz:-999.00;
pitch:0;roll:1;yaw:0;vgx:0;vgy:0;vgz:0;templ:65;temph:67;tof:10;h:0;bat:83;baro:-85.99;time:0;agx:-6.00;agy:-31.00;agz:-998.00;
pitch:0;roll:1;yaw:0;vgx:0;vgy:0;vgz:0;templ:65;temph:67;tof:10;h:0;bat:83;baro:-85.99;time:0;agx:-10.00;agy:-33.00;agz:-994.00;
pitch:0;roll:1;yaw:0;vgx:0;vgy:0;vgz:0;templ:65;temph:67;tof:10;h:0;bat:83;baro:-85.99;time:0;agx:-5.00;agy:-31.00;agz:-998.00;
pitch:0;roll:1;yaw:0;vgx:0;vgy:0;vgz:0;templ:65;temph:67;tof:10;h:0;bat:83;baro:-85.99;time:0;agx:-13.00;agy:-27.00;agz:-998.00;
pitch:0;roll:1;yaw:0;vgx:0;vgy:0;vgz:0;templ:65;temph:67;tof:10;h:0;bat:83;baro:-85.99;time:0;agx:-8.00;agy:-37.00;agz:-997.00;
pitch:0;roll:1;yaw:0;vgx:0;vgy:0;vgz:0;templ:65;temph:67;tof:10;h:0;bat:83;baro:-85.99;time:0;agx:-11.00;agy:-30.00;agz:-986.00;
pitch:0;roll:1;yaw:0;vgx:0;vgy:0;vgz:0;templ:65;temph:67;tof:10;h:0;bat:83;baro:-85.99;time:0;agx:-5.00;agy:-31.00;agz:-997.00;
pitch:0;roll:1;yaw:0;vgx:0;vgy:0;vgz:0;templ:65;temph:67;tof:10;h:0;bat:83;baro:-85.99;time:0;agx:-6.00;agy:-30.00;agz:-993.00;
pitch:0;roll:1;yaw:0;vgx:0;vgy:0;vgz:0;templ:65;temph:67;tof:10;h:0;bat:83;baro:-85.99;time:1;agx:-4.00;agy:-29.00;agz:-997.00;
pitch:0;roll:1;yaw:0;vgx:0;vgy:0;vgz:0;templ:65;temph:67;tof:10;h:0;bat:83;baro:-85.99;time:1;agx:-5.00;agy:-30.00;agz:-997.00;
pitch:0;roll:1;yaw:0;vgx:0;vgy:0;vgz:0;templ:65;temph:67;tof:10;h:0;bat:83;baro:-85.99;time:1;agx:-8.00;agy:-29.00;agz:-998.00;
pitch:0;roll:1;yaw:0;vgx:0;vgy:0;vgz:0;templ:65;temph:67;tof:10;h:0;bat:83;baro:-85.99;time:1;agx:-4.00;agy:-31.00;agz:-994.00;
pitch:0;roll:1;yaw:0;vgx:0;vgy:0;vgz:0;templ:65;temph:67;tof:10;h:0;bat:83;baro:-85.99;time:1;agx:-11.00;agy:-30.00;agz:-998.00;
pitch:0;roll:1;yaw:0;vgx:0;vgy:0;vgz:0;templ:65;temph:67;tof:10;h:0;bat:83;baro:-85.99;time:1;agx:-5.00;agy:-28.00;agz:-992.00;
pitch:0;roll:1;yaw:0;vgx:0;vgy:0;vgz:0;templ:65;temph:67;tof:10;h:0;bat:83;baro:-85.99;time:1;agx:-2.00;agy:-28.00;agz:-996.00;
pitch:0;roll:1;yaw:0;vgx:0;vgy:0;vgz:0;templ:65;temph:67;tof:10;h:0;bat:83;baro:-85.99;time:1;agx:-7.00;agy:-30.00;agz:-995.00;
pitch:0;roll:1;yaw:0;vgx:0;vgy:0;vgz:0;templ:65;temph:67;tof:10;h:0;bat:83;baro:-85.99;time:1;agx:-7.00;agy:-23.00;agz:-1006.00;
pitch:0;roll:1;yaw:0;vgx:0;vgy:0;vgz:0;templ:66;temph:68;tof:10;h:0;bat:83;baro:-85.99;time:1;agx:-16.00;agy:0.00;agz:-1165.00;
pitch:1;roll:3;yaw:0;vgx:0;vgy:0;vgz:-1;templ:66;temph:68;tof:11;h:0;bat:83;baro:-85.99;time:2;agx:-22.00;agy:26.00;agz:-1337.00;
pitch:0;roll:1;yaw:0;vgx:0;vgy:0;vgz:-3;templ:66;temph:68;tof:10;h:0;bat:83;baro:-85.99;time:2;agx:-21.00;agy:0.00;agz:-1249.00;
pitch:0;roll:0;yaw:0;vgx:0;vgy:0;vgz:-6;templ:66;temph:68;tof:14;h:0;bat:83;baro:-85.99;time:2;agx:11.00;agy:2.00;agz:-1110.00;
pitch:0;roll:0;yaw:0;vgx:0;vgy:0;vgz:-6;templ:66;temph:68;tof:23;h:0;bat:83;baro:-85.99;time:2;agx:6.00;agy:-8.00;agz:-1048.00;
pitch:0;roll:0;yaw:0;vgx:0;vgy:0;vgz:-7;templ:66;temph:68;tof:31;h:10;bat:83;baro:-85.99;time:2;agx:-9.00;agy:-5.00;agz:-1024.00;
pitch:0;roll:0;yaw:0;vgx:0;vgy:0;vgz:-7;templ:66;temph:68;tof:40;h:20;bat:83;baro:-85.84;time:2;agx:3.00;agy:-11.00;agz:-994.00;
pitch:0;roll:0;yaw:0;vgx:0;vgy:0;vgz:-7;templ:66;temph:68;tof:47;h:30;bat:83;baro:-85.62;time:2;agx:14.00;agy:8.00;agz:-997.00;
pitch:0;roll:0;yaw:0;vgx:0;vgy:0;vgz:-7;templ:66;temph:68;tof:56;h:30;bat:83;baro:-85.58;time:2;agx:8.00;agy:0.00;agz:-982.00;
pitch:0;roll:0;yaw:0;vgx:0;vgy:0;vgz:-7;templ:66;temph:68;tof:65;h:40;bat:83;baro:-85.18;time:2;agx:-10.00;agy:-13.00;agz:-930.00;
pitch:0;roll:0;yaw:0;vgx:0;vgy:0;vgz:-6;templ:65;temph:68;tof:75;h:50;bat:83;baro:-85.63;time:2;agx:21.00;agy:-12.00;agz:-959.00;
pitch:0;roll:0;yaw:0;vgx:0;vgy:0;vgz:-6;templ:65;temph:68;tof:83;h:60;bat:83;baro:-85.29;time:3;agx:18.00;agy:15.00;agz:-932.00;
pitch:0;roll:0;yaw:0;vgx:0;vgy:0;vgz:-6;templ:65;temph:68;tof:90;h:60;bat:83;baro:-85.23;time:3;agx:9.00;agy:-6.00;agz:-968.00;
pitch:0;roll:0;yaw:0;vgx:0;vgy:0;vgz:-5;templ:65;temph:68;tof:97;h:70;bat:82;baro:-85.22;time:3;agx:9.00;agy:0.00;agz:-925.00;
pitch:0;roll:0;yaw:0;vgx:0;vgy:0;vgz:-5;templ:65;temph:68;tof:105;h:80;bat:82;baro:-85.24;time:3;agx:8.00;agy:-3.00;agz:-891.00;
pitch:0;roll:0;yaw:0;vgx:0;vgy:0;vgz:-4;templ:65;temph:68;tof:110;h:80;bat:82;baro:-85.26;time:3;agx:17.00;agy:-8.00;agz:-901.00;
pitch:0;roll:0;yaw:0;vgx:0;vgy:0;vgz:-1;templ:65;temph:68;tof:114;h:80;bat:82;baro:-85.12;time:3;agx:2.00;agy:0.00;agz:-921.00;
pitch:0;roll:0;yaw:0;vgx:0;vgy:0;vgz:0;templ:65;temph:68;tof:118;h:80;bat:82;baro:-85.38;time:3;agx:-4.00;agy:11.00;agz:-949.00;
pitch:0;roll:0;yaw:0;vgx:0;vgy:0;vgz:0;templ:65;temph:68;tof:121;h:80;bat:82;baro:-85.11;time:3;agx:36.00;agy:2.00;agz:-976.00;
pitch:0;roll:0;yaw:0;vgx:0;vgy:0;vgz:0;templ:65;temph:68;tof:124;h:90;bat:82;baro:-85.20;time:3;agx:-9.00;agy:-3.00;agz:-951.00;
pitch:0;roll:0;yaw:0;vgx:0;vgy:0;vgz:0;templ:65;temph:68;tof:128;h:90;bat:82;baro:-85.14;time:3;agx:20.00;agy:-4.00;agz:-1001.00;
pitch:0;roll:0;yaw:0;vgx:0;vgy:0;vgz:0;templ:65;temph:68;tof:130;h:90;bat:82;baro:-85.14;time:4;agx:9.00;agy:-4.00;agz:-952.00;
pitch:0;roll:0;yaw:0;vgx:0;vgy:0;vgz:0;templ:65;temph:68;tof:131;h:90;bat:82;baro:-85.00;time:4;agx:-27.00;agy:-25.00;agz:-986.00;
pitch:0;roll:0;yaw:0;vgx:0;vgy:0;vgz:0;templ:65;temph:68;tof:132;h:90;bat:82;baro:-84.93;time:4;agx:5.00;agy:-29.00;agz:-927.00;
pitch:0;roll:0;yaw:0;vgx:0;vgy:0;vgz:0;templ:65;temph:68;tof:132;h:90;bat:82;baro:-85.10;time:4;agx:-5.00;agy:-14.00;agz:-958.00;
pitch:0;roll:0;yaw:0;vgx:0;vgy:0;vgz:0;templ:65;temph:68;tof:133;h:90;bat:82;baro:-84.84;time:4;agx:2.00;agy:2.00;agz:-977.00;
pitch:0;roll:0;yaw:0;vgx:0;vgy:0;vgz:0;templ:65;temph:68;tof:134;h:90;bat:82;baro:-85.02;time:4;agx:18.00;agy:2.00;agz:-978.00;
pitch:0;roll:0;yaw:0;vgx:0;vgy:0;vgz:0;templ:65;temph:68;tof:134;h:90;bat:82;baro:-85.03;time:4;agx:-30.00;agy:-7.00;agz:-986.00;
pitch:0;roll:0;yaw:0;vgx:0;vgy:0;vgz:0;templ:65;temph:68;tof:133;h:90;bat:82;baro:-85.02;time:4;agx:-5.00;agy:-14.00;agz:-990.00;
pitch:0;roll:0;yaw:0;vgx:0;vgy:0;vgz:1;templ:65;temph:68;tof:133;h:90;bat:82;baro:-85.16;time:4;agx:-3.00;agy:-7.00;agz:-954.00;
pitch:0;roll:0;yaw:0;vgx:0;vgy:0;vgz:1;templ:67;temph:68;tof:133;h:90;bat:82;baro:-84.90;time:4;agx:21.00;agy:-4.00;agz:-978.00;
pitch:0;roll:0;yaw:0;vgx:0;vgy:0;vgz:1;templ:67;temph:68;tof:132;h:90;bat:82;baro:-85.07;time:5;agx:40.00;agy:-15.00;agz:-1026.00;
pitch:0;roll:0;yaw:0;vgx:0;vgy:0;vgz:1;templ:67;temph:68;tof:131;h:90;bat:82;baro:-85.11;time:5;agx:-6.00;agy:0.00;agz:-984.00;
pitch:0;roll:0;yaw:0;vgx:0;vgy:0;vgz:1;templ:67;temph:68;tof:130;h:90;bat:82;baro:-84.81;time:5;agx:10.00;agy:26.00;agz:-974.00;
pitch:0;roll:0;yaw:0;vgx:0;vgy:0;vgz:1;templ:67;temph:68;tof:129;h:90;bat:82;baro:-85.27;time:5;agx:1.00;agy:0.00;agz:-1027.00;
pitch:0;roll:0;yaw:0;vgx:0;vgy:0;vgz:0;templ:67;temph:68;tof:128;h:90;bat:82;baro:-85.04;time:5;agx:17.00;agy:6.00;agz:-1010.00;
pitch:0;roll:0;yaw:-2;vgx:0;vgy:0;vgz:0;templ:67;temph:68;tof:127;h:90;bat:82;baro:-84.68;time:5;agx:-22.00;agy:0.00;agz:-1015.00;
pitch:0;roll:0;yaw:-7;vgx:0;vgy:0;vgz:0;templ:67;temph:68;tof:127;h:90;bat:82;baro:-85.15;time:5;agx:-21.00;agy:-2.00;agz:-1018.00;
pitch:0;roll:0;yaw:-13;vgx:0;vgy:0;vgz:0;templ:67;temph:68;tof:127;h:90;bat:82;baro:-85.10;time:5;agx:0.00;agy:0.00;agz:-998.00;
pitch:0;roll:0;yaw:-20;vgx:0;vgy:0;vgz:0;templ:67;temph:68;tof:127;h:90;bat:82;baro:-84.95;time:5;agx:-3.00;agy:-6.00;agz:-983.00;
pitch:0;roll:0;yaw:-26;vgx:0;vgy:0;vgz:0;templ:67;temph:68;tof:127;h:90;bat:82;baro:-85.09;time:5;agx:9.00;agy:6.00;agz:-994.00;
pitch:0;roll:0;yaw:-32;vgx:0;vgy:0;vgz:0;templ:67;temph:68;tof:126;h:90;bat:82;baro:-84.92;time:6;agx:-33.00;agy:-18.00;agz:-996.00;
pitch:0;roll:0;yaw:-37;vgx:0;vgy:0;vgz:0;templ:67;temph:68;tof:126;h:90;bat:82;baro:-85.05;time:6;agx:13.00;agy:-4.00;agz:-1006.00;
pitch:0;roll:0;yaw:-38;vgx:0;vgy:0;vgz:0;templ:67;temph:68;tof:125;h:90;bat:82;baro:-85.09;time:6;agx:35.00;agy:15.00;agz:-999.00;
pitch:0;roll:0;yaw:-38;vgx:0;vgy:0;vgz:0;templ:67;temph:68;tof:125;h:90;bat:82;baro:-85.04;time:6;agx:-14.00;agy:26.00;agz:-1007.00;
pitch:0;roll:0;yaw:-40;vgx:0;vgy:0;vgz:0;templ:67;temph:68;tof:125;h:90;bat:82;baro:-84.88;time:6;agx:19.00;agy:-11.00;agz:-1002.00;
pitch:0;roll:0;yaw:-40;vgx:0;vgy:0;vgz:0;templ:67;temph:68;tof:125;h:90;bat:82;baro:-84.79;time:6;agx:35.00;agy:21.00;agz:-1052.00;
pitch:0;roll:0;yaw:-41;vgx:0;vgy:0;vgz:0;templ:67;temph:68;tof:125;h:90;bat:82;baro:-85.38;time:6;agx:6.00;agy:6.00;agz:-992.00;
pitch:0;roll:0;yaw:-42;vgx:0;vgy:0;vgz:0;templ:67;temph:68;tof:125;h:90;bat:82;baro:-85.02;time:6;agx:12.00;agy:5.00;agz:-974.00;
pitch:0;roll:0;yaw:-42;vgx:0;vgy:0;vgz:0;templ:67;temph:68;tof:124;h:90;bat:82;baro:-84.86;time:6;agx:0.00;agy:14.00;agz:-988.00;
pitch:0;roll:0;yaw:-43;vgx:0;vgy:0;vgz:0;templ:67;temph:69;tof:124;h:90;bat:82;baro:-84.92;time:6;agx:33.00;agy:14.00;agz:-1012.00;
pitch:0;roll:0;yaw:-44;vgx:0;vgy:0;vgz:0;templ:67;temph:69;tof:124;h:90;bat:82;baro:-85.14;time:7;agx:6.00;agy:13.00;agz:-997.00;
pitch:0;roll:0;yaw:-45;vgx:0;vgy:0;vgz:0;templ:67;temph:69;tof:124;h:90;bat:82;baro:-84.75;time:7;agx:3.00;agy:16.00;agz:-999.00;
pitch:0;roll:0;yaw:-45;vgx:0;vgy:0;vgz:0;templ:67;temph:69;tof:124;h:90;bat:82;baro:-84.77;time:7;agx:25.00;agy:15.00;agz:-968.00;
pitch:0;roll:0;yaw:-46;vgx:0;vgy:0;vgz:0;templ:67;temph:69;tof:124;h:90;bat:82;baro:-84.87;time:7;agx:4.00;agy:4.00;agz:-980.00;
pitch:0;roll:0;yaw:-47;vgx:0;vgy:0;vgz:0;templ:67;temph:69;tof:124;h:90;bat:82;baro:-85.21;time:7;agx:9.00;agy:14.00;agz:-945.00;
pitch:0;roll:0;yaw:-47;vgx:0;vgy:0;vgz:0;templ:67;temph:69;tof:124;h:90;bat:82;baro:-85.11;time:7;agx:24.00;agy:29.00;agz:-948.00;
pitch:0;roll:0;yaw:-47;vgx:0;vgy:0;vgz:0;templ:67;temph:69;tof:125;h:90;bat:82;baro:-84.88;time:7;agx:6.00;agy:19.00;agz:-983.00;
pitch:0;roll:0;yaw:-47;vgx:0;vgy:0;vgz:0;templ:67;temph:69;tof:125;h:90;bat:82;baro:-84.86;time:7;agx:4.00;agy:28.00;agz:-1003.00;
pitch:0;roll:0;yaw:-47;vgx:0;vgy:0;vgz:0;templ:67;temph:69;tof:126;h:90;bat:82;baro:-84.82;time:7;agx:7.00;agy:22.00;agz:-1008.00;
pitch:0;roll:0;yaw:-47;vgx:0;vgy:0;vgz:0;templ:67;temph:69;tof:126;h:90;bat:82;baro:-85.07;time:8;agx:-33.00;agy:8.00;agz:-1037.00;
pitch:0;roll:0;yaw:-47;vgx:0;vgy:0;vgz:0;templ:67;temph:69;tof:126;h:90;bat:82;baro:-85.14;time:8;agx:-4.00;agy:5.00;agz:-987.00;
pitch:0;roll:0;yaw:-47;vgx:0;vgy:0;vgz:0;templ:67;temph:69;tof:127;h:90;bat:82;baro:-85.20;time:8;agx:-5.00;agy:3.00;agz:-1027.00;
pitch:0;roll:0;yaw:-47;vgx:0;vgy:0;vgz:0;templ:67;temph:69;tof:128;h:90;bat:82;baro:-84.88;time:8;agx:-7.00;agy:13.00;agz:-1041.00;
pitch:0;roll:0;yaw:-47;vgx:0;vgy:0;vgz:0;templ:67;temph:69;tof:129;h:90;bat:82;baro:-85.24;time:8;agx:16.00;agy:6.00;agz:-989.00;
pitch:0;roll:0;yaw:-45;vgx:0;vgy:0;vgz:0;templ:67;temph:69;tof:129;h:90;bat:82;baro:-84.74;time:8;agx:-1.00;agy:25.00;agz:-1018.00;
pitch:0;roll:0;yaw:-40;vgx:0;vgy:0;vgz:0;templ:67;temph:69;tof:130;h:90;bat:82;baro:-84.98;time:8;agx:15.00;agy:1.00;agz:-983.00;
pitch:0;roll:0;yaw:-34;vgx:0;vgy:0;vgz:0;templ:67;temph:69;tof:130;h:90;bat:82;baro:-84.99;time:8;agx:46.00;agy:26.00;agz:-975.00;
pitch:0;roll:0;yaw:-28;vgx:0;vgy:0;vgz:0;templ:67;temph:69;tof:132;h:90;bat:82;baro:-84.86;time:8;agx:15.00;agy:13.00;agz:-920.00;
pitch:0;roll:0;yaw:-26;vgx:0;vgy:0;vgz:0;templ:67;temph:69;tof:132;h:90;bat:82;baro:-84.71;time:8;agx:18.00;agy:0.00;agz:-1004.00;
pitch:0;roll:0;yaw:-26;vgx:0;vgy:0;vgz:0;templ:67;temph:70;tof:133;h:90;bat:82;baro:-84.97;time:9;agx:19.00;agy:-7.00;agz:-1034.00;
pitch:0;roll:0;yaw:-26;vgx:0;vgy:0;vgz:0;templ:67;temph:70;tof:134;h:90;bat:82;baro:-85.12;time:9;agx:3.00;agy:9.00;agz:-1001.00;
pitch:0;roll:0;yaw:-26;vgx:0;vgy:0;vgz:0;templ:67;temph:70;tof:135;h:90;bat:82;baro:-84.65;time:9;agx:2.00;agy:4.00;agz:-967.00;
pitch:0;roll:0;yaw:-26;vgx:0;vgy:0;vgz:0;templ:67;temph:70;tof:136;h:90;bat:82;baro:-84.94;time:9;agx:14.00;agy:0.00;agz:-988.00;
pitch:0;roll:0;yaw:-26;vgx:0;vgy:0;vgz:0;templ:67;temph:70;tof:136;h:90;bat:82;baro:-84.72;time:9;agx:3.00;agy:12.00;agz:-965.00;
pitch:0;roll:0;yaw:-26;vgx:0;vgy:0;vgz:0;templ:67;temph:70;tof:136;h:90;bat:82;baro:-84.81;time:9;agx:13.00;agy:15.00;agz:-993.00;
pitch:0;roll:0;yaw:-26;vgx:0;vgy:0;vgz:0;templ:67;temph:70;tof:137;h:90;bat:82;baro:-85.25;time:9;agx:-19.00;agy:0.00;agz:-977.00;
pitch:0;roll:0;yaw:-26;vgx:0;vgy:0;vgz:0;templ:67;temph:70;tof:137;h:90;bat:82;baro:-84.82;time:9;agx:11.00;agy:16.00;agz:-953.00;
pitch:0;roll:0;yaw:-26;vgx:0;vgy:0;vgz:0;templ:67;temph:70;tof:137;h:90;bat:82;baro:-84.81;time:9;agx:-4.00;agy:19.00;agz:-988.00;
pitch:0;roll:0;yaw:-26;vgx:0;vgy:0;vgz:0;templ:67;temph:70;tof:137;h:90;bat:82;baro:-84.80;time:9;agx:12.00;agy:15.00;agz:-983.00;
pitch:0;roll:0;yaw:-26;vgx:0;vgy:0;vgz:0;templ:69;temph:70;tof:137;h:90;bat:82;baro:-84.93;time:10;agx:7.00;agy:0.00;agz:-997.00;
pitch:0;roll:0;yaw:-26;vgx:0;vgy:0;vgz:0;templ:69;temph:70;tof:138;h:90;bat:82;baro:-85.10;time:10;agx:27.00;agy:-2.00;agz:-988.00;
pitch:0;roll:0;yaw:-26;vgx:0;vgy:0;vgz:0;templ:69;temph:70;tof:138;h:90;bat:82;baro:-84.62;time:10;agx:-3.00;agy:19.00;agz:-997.00;
pitch:0;roll:0;yaw:-26;vgx:0;vgy:0;vgz:0;templ:69;temph:70;tof:137;h:90;bat:82;baro:-84.80;time:10;agx:7.00;agy:11.00;agz:-1012.00;
pitch:0;roll:0;yaw:-26;vgx:0;vgy:0;vgz:0;templ:69;temph:70;tof:138;h:90;bat:82;baro:-84.61;time:10;agx:12.00;agy:8.00;agz:-989.00;
pitch:0;roll:0;yaw:-26;vgx:0;vgy:0;vgz:0;templ:69;temph:70;tof:138;h:90;bat:82;baro:-85.00;time:10;agx:20.00;agy:7.00;agz:-1017.00;
pitch:0;roll:0;yaw:-26;vgx:0;vgy:0;vgz:0;templ:69;temph:70;tof:138;h:90;bat:82;baro:-84.98;time:10;agx:44.00;agy:8.00;agz:-1007.00;
pitch:0;roll:0;yaw:-26;vgx:0;vgy:0;vgz:0;templ:69;temph:70;tof:138;h:90;bat:82;baro:-84.93;time:10;agx:9.00;agy:2.00;agz:-983.00;
pitch:0;roll:0;yaw:-26;vgx:0;vgy:0;vgz:0;templ:69;temph:70;tof:138;h:90;bat:82;baro:-84.86;time:10;agx:24.00;agy:9.00;agz:-988.00;
pitch:0;roll:0;yaw:-26;vgx:0;vgy:0;vgz:0;templ:69;temph:70;tof:138;h:90;bat:82;baro:-84.91;time:10;agx:12.00;agy:11.00;agz:-998.00;
pitch:0;roll:0;yaw:-26;vgx:0;vgy:0;vgz:0;templ:69;temph:70;tof:138;h:100;bat:82;baro:-84.73;time:11;agx:7.00;agy:17.00;agz:-1002.00;
pitch:0;roll:0;yaw:-26;vgx:0;vgy:0;vgz:0;templ:69;temph:70;tof:137;h:100;bat:82;baro:-84.54;time:11;agx:16.00;agy:7.00;agz:-958.00;
pitch:0;roll:0;yaw:-26;vgx:0;vgy:0;vgz:0;templ:69;temph:70;tof:137;h:100;bat:82;baro:-84.61;time:11;agx:-6.00;agy:6.00;agz:-994.00;
pitch:0;roll:0;yaw:-26;vgx:0;vgy:0;vgz:0;templ:69;temph:70;tof:136;h:100;bat:82;baro:-84.90;time:11;agx:-5.00;agy:1.00;agz:-987.00;
pitch:0;roll:0;yaw:-26;vgx:0;vgy:0;vgz:0;templ:69;temph:70;tof:136;h:100;bat:82;baro:-84.77;time:11;agx:0.00;agy:0.00;agz:-962.00;
pitch:0;roll:0;yaw:-26;vgx:0;vgy:0;vgz:0;templ:69;temph:70;tof:135;h:100;bat:82;baro:-84.82;time:11;agx:13.00;agy:8.00;agz:-998.00;
pitch:0;roll:0;yaw:-26;vgx:0;vgy:0;vgz:0;templ:69;temph:70;tof:135;h:100;bat:82;baro:-85.04;time:11;agx:-1.00;agy:-4.00;agz:-986.00;
pitch:0;roll:0;yaw:-26;vgx:0;vgy:0;vgz:0;templ:69;temph:70;tof:134;h:90;bat:82;baro:-84.72;time:11;agx:15.00;agy:-9.00;agz:-996.00;
pitch:0;roll:0;yaw:-26;vgx:0;vgy:0;vgz:0;templ:69;temph:70;tof:134;h:90;bat:82;baro:-84.72;time:11;agx:42.00;agy:4.00;agz:-971.00;
pitch:0;roll:0;yaw:-26;vgx:0;vgy:0;vgz:0;templ:69;temph:70;tof:133;h:90;bat:82;baro:-84.71;time:11;agx:18.00;agy:22.00;agz:-1024.00;
pitch:0;roll:0;yaw:-26;vgx:0;vgy:0;vgz:0;templ:69;temph:71;tof:132;h:90;bat:82;baro:-84.69;time:12;agx:15.00;agy:6.00;agz:-1021.00;
pitch:0;roll:-1;yaw:-26;vgx:0;vgy:0;vgz:0;templ:69;temph:71;tof:132;h:90;bat:82;baro:-84.48;time:12;agx:24.00;agy:27.00;agz:-945.00;
pitch:0;roll:-1;yaw:-24;vgx:0;vgy:0;vgz:0;templ:69;temph:71;tof:131;h:90;bat:82;baro:-85.15;time:12;agx:19.00;agy:-2.00;agz:-990.00;
pitch:1;roll:0;yaw:-22;vgx:0;vgy:0;vgz:0;templ:69;temph:71;tof:130;h:90;bat:82;baro:-84.92;time:12;agx:4.00;agy:18.00;agz:-975.00;
pitch:1;roll:0;yaw:-21;vgx:0;vgy:0;vgz:0;templ:69;temph:71;tof:130;h:90;bat:82;baro:-85.03;time:12;agx:35.00;agy:19.00;agz:-1021.00;
pitch:0;roll:0;yaw:-20;vgx:0;vgy:0;vgz:0;templ:69;temph:71;tof:129;h:90;bat:82;baro:-85.00;time:12;agx:30.00;agy:16.00;agz:-996.00;
pitch:0;roll:0;yaw:-20;vgx:0;vgy:0;vgz:0;templ:69;temph:71;tof:129;h:90;bat:82;baro:-85.00;time:12;agx:10.00;agy:19.00;agz:-1004.00;
pitch:0;roll:0;yaw:-19;vgx:0;vgy:0;vgz:0;templ:69;temph:71;tof:130;h:90;bat:82;baro:-84.60;time:12;agx:1.00;agy:13.00;agz:-1019.00;
pitch:0;roll:0;yaw:-19;vgx:0;vgy:0;vgz:0;templ:69;temph:71;tof:129;h:90;bat:82;baro:-84.97;time:12;agx:29.00;agy:17.00;agz:-995.00;
pitch:0;roll:0;yaw:-18;vgx:0;vgy:0;vgz:0;templ:69;temph:71;tof:129;h:90;bat:82;baro:-84.93;time:12;agx:12.00;agy:14.00;agz:-981.00;
pitch:0;roll:0;yaw:-18;vgx:0;vgy:0;vgz:0;templ:70;temph:71;tof:128;h:90;bat:82;baro:-85.05;time:13;agx:0.00;agy:20.00;agz:-1010.00;
pitch:0;roll:0;yaw:-17;vgx:0;vgy:0;vgz:0;templ:70;temph:71;tof:129;h:90;bat:82;baro:-84.57;time:13;agx:7.00;agy:19.00;agz:-983.00;
pitch:0;roll:0;yaw:-16;vgx:0;vgy:0;vgz:0;templ:70;temph:71;tof:129;h:90;bat:82;baro:-84.75;time:13;agx:15.00;agy:9.00;agz:-1016.00;
pitch:0;roll:0;yaw:-16;vgx:0;vgy:0;vgz:0;templ:70;temph:71;tof:129;h:90;bat:82;baro:-84.85;time:13;agx:17.00;agy:10.00;agz:-1003.00;
pitch:0;roll:0;yaw:-13;vgx:0;vgy:0;vgz:0;templ:70;temph:71;tof:128;h:90;bat:82;baro:-84.97;time:13;agx:10.00;agy:10.00;agz:-968.00;
pitch:1;roll:0;yaw:-7;vgx:0;vgy:0;vgz:0;templ:70;temph:71;tof:129;h:90;bat:82;baro:-84.71;time:13;agx:10.00;agy:16.00;agz:-982.00;
pitch:1;roll:0;yaw:-4;vgx:0;vgy:0;vgz:0;templ:70;temph:71;tof:128;h:90;bat:82;baro:-84.83;time:13;agx:16.00;agy:7.00;agz:-988.00;
pitch:1;roll:0;yaw:-3;vgx:0;vgy:0;vgz:0;templ:70;temph:71;tof:128;h:90;bat:82;baro:-85.03;time:13;agx:8.00;agy:10.00;agz:-996.00;
pitch:1;roll:0;yaw:1;vgx:0;vgy:0;vgz:0;templ:70;temph:71;tof:128;h:90;bat:82;baro:-85.12;time:13;agx:5.00;agy:11.00;agz:-986.00;
pitch:0;roll:0;yaw:7;vgx:0;vgy:0;vgz:0;templ:70;temph:71;tof:127;h:90;bat:82;baro:-84.71;time:13;agx:13.00;agy:11.00;agz:-980.00;
pitch:0;roll:0;yaw:13;vgx:0;vgy:0;vgz:0;templ:70;temph:72;tof:127;h:90;bat:82;baro:-84.93;time:14;agx:18.00;agy:-3.00;agz:-1011.00;
pitch:0;roll:0;yaw:20;vgx:0;vgy:0;vgz:0;templ:70;temph:72;tof:127;h:90;bat:82;baro:-84.79;time:14;agx:-4.00;agy:-3.00;agz:-1009.00;
pitch:0;roll:0;yaw:22;vgx:0;vgy:0;vgz:0;templ:70;temph:72;tof:126;h:90;bat:82;baro:-84.80;time:14;agx:0.00;agy:18.00;agz:-966.00;
pitch:0;roll:0;yaw:22;vgx:0;vgy:0;vgz:0;templ:70;temph:72;tof:126;h:90;bat:82;baro:-84.87;time:14;agx:15.00;agy:-7.00;agz:-993.00;
pitch:0;roll:0;yaw:23;vgx:0;vgy:0;vgz:0;templ:70;temph:72;tof:125;h:90;bat:82;baro:-85.28;time:14;agx:26.00;agy:2.00;agz:-1013.00;
pitch:0;roll:0;yaw:27;vgx:0;vgy:0;vgz:0;templ:70;temph:72;tof:125;h:90;bat:82;baro:-84.92;time:14;agx:7.00;agy:3.00;agz:-1005.00;
pitch:0;roll:0;yaw:29;vgx:0;vgy:0;vgz:0;templ:70;temph:72;tof:124;h:90;bat:82;baro:-85.03;time:14;agx:-3.00;agy:-6.00;agz:-1004.00;
pitch:0;roll:0;yaw:29;vgx:0;vgy:0;vgz:0;templ:70;temph:72;tof:124;h:90;bat:82;baro:-84.99;time:14;agx:0.00;agy:3.00;agz:-989.00;
pitch:0;roll:0;yaw:29;vgx:0;vgy:0;vgz:0;templ:70;temph:72;tof:124;h:90;bat:82;baro:-84.94;time:14;agx:18.00;agy:-8.00;agz:-1007.00;
pitch:0;roll:0;yaw:33;vgx:0;vgy:0;vgz:0;templ:70;temph:72;tof:124;h:90;bat:82;baro:-84.99;time:14;agx:0.00;agy:8.00;agz:-998.00;
pitch:0;roll:0;yaw:39;vgx:0;vgy:0;vgz:0;templ:70;temph:71;tof:124;h:90;bat:82;baro:-85.21;time:15;agx:31.00;agy:-4.00;agz:-1000.00;
pitch:0;roll:0;yaw:41;vgx:0;vgy:0;vgz:0;templ:70;temph:71;tof:124;h:90;bat:82;baro:-84.97;time:15;agx:-23.00;agy:4.00;agz:-979.00;
pitch:0;roll:0;yaw:41;vgx:0;vgy:0;vgz:0;templ:70;temph:71;tof:124;h:90;bat:82;baro:-85.17;time:15;agx:4.00;agy:4.00;agz:-998.00;
pitch:0;roll:0;yaw:41;vgx:0;vgy:0;vgz:0;templ:70;temph:71;tof:124;h:90;bat:82;baro:-84.77;time:15;agx:1.00;agy:-13.00;agz:-1004.00;
pitch:0;roll:0;yaw:41;vgx:0;vgy:0;vgz:0;templ:70;temph:71;tof:125;h:90;bat:82;baro:-85.15;time:15;agx:-5.00;agy:-4.00;agz:-985.00;
pitch:0;roll:0;yaw:41;vgx:0;vgy:0;vgz:0;templ:70;temph:71;tof:125;h:90;bat:82;baro:-85.14;time:15;agx:9.00;agy:-23.00;agz:-1010.00;
pitch:0;roll:0;yaw:41;vgx:0;vgy:0;vgz:0;templ:70;temph:71;tof:125;h:90;bat:82;baro:-84.97;time:15;agx:13.00;agy:0.00;agz:-1014.00;
pitch:0;roll:0;yaw:41;vgx:0;vgy:0;vgz:0;templ:70;temph:71;tof:125;h:90;bat:82;baro:-84.64;time:15;agx:22.00;agy:-25.00;agz:-991.00;
pitch:0;roll:0;yaw:44;vgx:0;vgy:0;vgz:0;templ:70;temph:71;tof:125;h:90;bat:82;baro:-84.87;time:15;agx:-6.00;agy:-3.00;agz:-1006.00;
pitch:0;roll:0;yaw:50;vgx:0;vgy:0;vgz:0;templ:70;temph:71;tof:125;h:90;bat:82;baro:-85.27;time:15;agx:8.00;agy:-17.00;agz:-977.00;
pitch:0;roll:0;yaw:56;vgx:0;vgy:0;vgz:0;templ:70;temph:71;tof:125;h:90;bat:82;baro:-85.18;time:16;agx:15.00;agy:-4.00;agz:-990.00;
pitch:0;roll:0;yaw:61;vgx:0;vgy:0;vgz:0;templ:70;temph:71;tof:125;h:90;bat:82;baro:-85.09;time:16;agx:1.00;agy:-27.00;agz:-1009.00;
pitch:0;roll:0;yaw:67;vgx:0;vgy:0;vgz:0;templ:70;temph:71;tof:125;h:90;bat:82;baro:-85.01;time:16;agx:1.00;agy:-11.00;agz:-1000.00;
pitch:0;roll:0;yaw:73;vgx:0;vgy:0;vgz:0;templ:70;temph:71;tof:125;h:90;bat:82;baro:-84.92;time:16;agx:-13.00;agy:-24.00;agz:-939.00;
pitch:0;roll:0;yaw:79;vgx:0;vgy:0;vgz:0;templ:70;temph:71;tof:125;h:90;bat:82;baro:-84.85;time:16;agx:28.00;agy:-12.00;agz:-955.00;
pitch:0;roll:0;yaw:85;vgx:0;vgy:0;vgz:0;templ:70;temph:71;tof:125;h:90;bat:82;baro:-84.85;time:16;agx:-12.00;agy:-23.00;agz:-990.00;
pitch:0;roll:0;yaw:90;vgx:0;vgy:0;vgz:0;templ:70;temph:71;tof:126;h:90;bat:82;baro:-84.99;time:16;agx:16.00;agy:-6.00;agz:-1017.00;
pitch:-1;roll:0;yaw:92;vgx:0;vgy:0;vgz:0;templ:70;temph:71;tof:126;h:90;bat:82;baro:-84.94;time:16;agx:-16.00;agy:-9.00;agz:-1004.00;
pitch:-1;roll:0;yaw:88;vgx:0;vgy:0;vgz:0;templ:70;temph:71;tof:126;h:90;bat:82;baro:-84.86;time:16;agx:-62.00;agy:29.00;agz:-993.00;
pitch:-1;roll:0;yaw:82;vgx:0;vgy:0;vgz:0;templ:70;temph:71;tof:126;h:90;bat:82;baro:-84.97;time:16;agx:-54.00;agy:33.00;agz:-1011.00;
pitch:-1;roll:0;yaw:76;vgx:0;vgy:0;vgz:0;templ:71;temph:72;tof:128;h:90;bat:82;baro:-84.91;time:17;agx:10.00;agy:-10.00;agz:-1010.00;
pitch:0;roll:0;yaw:70;vgx:0;vgy:0;vgz:0;templ:71;temph:72;tof:127;h:90;bat:82;baro:-84.96;time:17;agx:-1.00;agy:-14.00;agz:-1001.00;
pitch:0;roll:0;yaw:64;vgx:0;vgy:0;vgz:0;templ:71;temph:72;tof:127;h:90;bat:82;baro:-84.95;time:17;agx:-9.00;agy:5.00;agz:-1004.00;
pitch:0;roll:0;yaw:59;vgx:0;vgy:0;vgz:0;templ:71;temph:72;tof:128;h:90;bat:82;baro:-85.10;time:17;agx:-4.00;agy:1.00;agz:-1001.00;
pitch:0;roll:0;yaw:53;vgx:0;vgy:0;vgz:0;templ:71;temph:72;tof:129;h:90;bat:82;baro:-84.92;time:17;agx:4.00;agy:-8.00;agz:-1013.00;
pitch:0;roll:0;yaw:48;vgx:0;vgy:0;vgz:0;templ:71;temph:72;tof:129;h:90;bat:82;baro:-85.13;time:17;agx:-30.00;agy:-4.00;agz:-1003.00;
pitch:0;roll:0;yaw:42;vgx:0;vgy:0;vgz:0;templ:71;temph:72;tof:130;h:90;bat:82;baro:-84.93;time:17;agx:-12.00;agy:-8.00;agz:-983.00;
pitch:0;roll:0;yaw:37;vgx:0;vgy:0;vgz:0;templ:71;temph:72;tof:130;h:90;bat:82;baro:-84.90;time:17;agx:11.00;agy:0.00;agz:-988.00;
pitch:0;roll:0;yaw:32;vgx:0;vgy:0;vgz:0;templ:71;temph:72;tof:131;h:90;bat:82;baro:-84.93;time:17;agx:0.00;agy:-13.00;agz:-990.00;
pitch:0;roll:0;yaw:26;vgx:0;vgy:0;vgz:0;templ:71;temph:72;tof:131;h:90;bat:82;baro:-85.31;time:17;agx:23.00;agy:-33.00;agz:-984.00;
pitch:0;roll:0;yaw:24;vgx:0;vgy:0;vgz:0;templ:71;temph:73;tof:131;h:90;bat:82;baro:-84.90;time:18;agx:20.00;agy:-14.00;agz:-1002.00;
pitch:0;roll:0;yaw:24;vgx:0;vgy:0;vgz:0;templ:71;temph:73;tof:131;h:90;bat:82;baro:-85.26;time:18;agx:-7.00;agy:-7.00;agz:-980.00;
pitch:0;roll:0;yaw:24;vgx:0;vgy:0;vgz:0;templ:71;temph:73;tof:131;h:90;bat:82;baro:-84.72;time:18;agx:-5.00;agy:-5.00;agz:-987.00;
pitch:0;roll:0;yaw:25;vgx:0;vgy:0;vgz:0;templ:71;temph:73;tof:131;h:90;bat:82;baro:-84.57;time:18;agx:34.00;agy:-6.00;agz:-1020.00;
pitch:0;roll:0;yaw:25;vgx:0;vgy:0;vgz:0;templ:71;temph:73;tof:130;h:90;bat:82;baro:-85.24;time:18;agx:-17.00;agy:-22.00;agz:-1001.00;
pitch:0;roll:0;yaw:25;vgx:0;vgy:0;vgz:0;templ:71;temph:73;tof:130;h:90;bat:82;baro:-85.07;time:18;agx:-2.00;agy:-7.00;agz:-991.00;
pitch:0;roll:0;yaw:25;vgx:0;vgy:0;vgz:0;templ:71;temph:73;tof:130;h:90;bat:82;baro:-84.77;time:18;agx:-13.00;agy:0.00;agz:-967.00;
pitch:0;roll:0;yaw:25;vgx:0;vgy:0;vgz:0;templ:71;temph:73;tof:130;h:90;bat:82;baro:-85.00;time:18;agx:0.00;agy:1.00;agz:-1014.00;
pitch:0;roll:0;yaw:25;vgx:0;vgy:0;vgz:0;templ:71;temph:73;tof:130;h:90;bat:82;baro:-84.77;time:18;agx:-31.00;agy:16.00;agz:-995.00;
pitch:0;roll:0;yaw:22;vgx:0;vgy:0;vgz:0;templ:71;temph:73;tof:129;h:90;bat:82;baro:-85.09;time:18;agx:48.00;agy:-11.00;agz:-1052.00;
pitch:0;roll:0;yaw:17;vgx:0;vgy:0;vgz:0;templ:71;temph:73;tof:130;h:90;bat:82;baro:-85.10;time:19;agx:2.00;agy:-8.00;agz:-995.00;
pitch:0;roll:0;yaw:12;vgx:0;vgy:0;vgz:0;templ:71;temph:73;tof:130;h:90;bat:82;baro:-84.87;time:19;agx:-48.00;agy:3.00;agz:-986.00;
pitch:0;roll:0;yaw:6;vgx:0;vgy:0;vgz:0;templ:71;temph:73;tof:130;h:90;bat:82;baro:-84.78;time:19;agx:-15.00;agy:-5.00;agz:-984.00;
pitch:0;roll:0;yaw:0;vgx:0;vgy:0;vgz:0;templ:71;temph:73;tof:130;h:90;bat:82;baro:-85.01;time:19;agx:40.00;agy:-28.00;agz:-996.00;
pitch:0;roll:0;yaw:-1;vgx:0;vgy:0;vgz:0;templ:71;temph:73;tof:130;h:90;bat:82;baro:-84.79;time:19;agx:40.00;agy:2.00;agz:-1019.00;
pitch:0;roll:0;yaw:-1;vgx:0;vgy:0;vgz:0;templ:71;temph:73;tof:130;h:90;bat:82;baro:-85.15;time:19;agx:-36.00;agy:24.00;agz:-1013.00;
pitch:0;roll:0;yaw:-4;vgx:0;vgy:0;vgz:0;templ:71;temph:73;tof:130;h:90;bat:82;baro:-85.03;time:19;agx:0.00;agy:-3.00;agz:-990.00;
pitch:0;roll:0;yaw:-10;vgx:0;vgy:0;vgz:0;templ:71;temph:73;tof:129;h:90;bat:82;baro:-85.28;time:19;agx:-6.00;agy:-1.00;agz:-993.00;
pitch:0;roll:0;yaw:-15;vgx:0;vgy:0;vgz:0;templ:71;temph:73;tof:130;h:90;bat:82;baro:-84.99;time:19;agx:79.00;agy:-19.00;agz:-955.00;
pitch:0;roll:0;yaw:-17;vgx:0;vgy:0;vgz:0;templ:71;temph:73;tof:130;h:90;bat:82;baro:-85.13;time:19;agx:-3.00;agy:17.00;agz:-1003.00;
pitch:0;roll:0;yaw:-17;vgx:0;vgy:0;vgz:0;templ:71;temph:74;tof:129;h:90;bat:82;baro:-85.10;time:20;agx:31.00;agy:-32.00;agz:-960.00;
pitch:0;roll:0;yaw:-14;vgx:0;vgy:0;vgz:0;templ:71;temph:74;tof:129;h:90;bat:82;baro:-84.99;time:20;agx:2.00;agy:2.00;agz:-1008.00;
pitch:0;roll:0;yaw:-8;vgx:0;vgy:0;vgz:0;templ:71;temph:74;tof:129;h:90;bat:82;baro:-84.64;time:20;agx:8.00;agy:6.00;agz:-996.00;
pitch:0;roll:0;yaw:-2;vgx:0;vgy:0;vgz:0;templ:71;temph:74;tof:129;h:90;bat:82;baro:-84.46;time:20;agx:-6.00;agy:2.00;agz:-1025.00;
pitch:0;roll:0;yaw:3;vgx:0;vgy:0;vgz:0;templ:71;temph:74;tof:130;h:90;bat:82;baro:-85.02;time:20;agx:-1.00;agy:-1.00;agz:-1007.00;
pitch:0;roll:0;yaw:9;vgx:0;vgy:0;vgz:0;templ:71;temph:74;tof:130;h:90;bat:82;baro:-85.13;time:20;agx:-15.00;agy:-15.00;agz:-1025.00;
pitch:0;roll:0;yaw:15;vgx:0;vgy:0;vgz:0;templ:71;temph:74;tof:131;h:90;bat:82;baro:-84.91;time:20;agx:4.00;agy:-9.00;agz:-998.00;
pitch:0;roll:0;yaw:20;vgx:0;vgy:0;vgz:0;templ:71;temph:74;tof:131;h:90;bat:82;baro:-84.80;time:20;agx:15.00;agy:-13.00;agz:-1030.00;
pitch:-1;roll:0;yaw:26;vgx:0;vgy:0;vgz:0;templ:71;temph:74;tof:132;h:90;bat:82;baro:-85.13;time:20;agx:-2.00;agy:-3.00;agz:-988.00;
pitch:-1;roll:0;yaw:32;vgx:0;vgy:0;vgz:0;templ:71;temph:74;tof:132;h:90;bat:82;baro:-84.98;time:20;agx:-40.00;agy:-25.00;agz:-994.00;
pitch:-1;roll:0;yaw:37;vgx:0;vgy:0;vgz:0;templ:72;temph:73;tof:133;h:90;bat:82;baro:-84.96;time:21;agx:3.00;agy:-5.00;agz:-969.00;
pitch:-1;roll:0;yaw:43;vgx:0;vgy:0;vgz:0;templ:72;temph:73;tof:133;h:90;bat:82;baro:-84.99;time:21;agx:-15.00;agy:-2.00;agz:-994.00;
pitch:-1;roll:0;yaw:49;vgx:0;vgy:0;vgz:0;templ:72;temph:73;tof:134;h:90;bat:82;baro:-84.73;time:21;agx:-57.00;agy:-22.00;agz:-988.00;
pitch:0;roll:0;yaw:55;vgx:0;vgy:0;vgz:0;templ:72;temph:73;tof:134;h:90;bat:82;baro:-84.81;time:21;agx:-35.00;agy:-15.00;agz:-993.00;
pitch:0;roll:0;yaw:61;vgx:0;vgy:0;vgz:0;templ:72;temph:73;tof:134;h:90;bat:82;baro:-85.05;time:21;agx:0.00;agy:-18.00;agz:-997.00;
pitch:0;roll:0;yaw:67;vgx:0;vgy:0;vgz:0;templ:72;temph:73;tof:135;h:90;bat:82;baro:-85.00;time:21;agx:-21.00;agy:-14.00;agz:-974.00;
pitch:-1;roll:0;yaw:73;vgx:0;vgy:0;vgz:0;templ:72;temph:73;tof:135;h:90;bat:82;baro:-85.12;time:21;agx:-32.00;agy:1.00;agz:-976.00;
pitch:-1;roll:0;yaw:79;vgx:0;vgy:0;vgz:0;templ:72;temph:73;tof:136;h:90;bat:82;baro:-85.21;time:21;agx:16.00;agy:-1.00;agz:-972.00;
pitch:-1;roll:0;yaw:84;vgx:0;vgy:0;vgz:0;templ:72;temph:73;tof:136;h:90;bat:82;baro:-84.87;time:21;agx:-15.00;agy:10.00;agz:-983.00;
pitch:-1;roll:0;yaw:90;vgx:0;vgy:0;vgz:0;templ:72;temph:73;tof:137;h:90;bat:82;baro:-84.91;time:21;agx:-63.00;agy:20.00;agz:-1029.00;
pitch:0;roll:0;yaw:95;vgx:0;vgy:0;vgz:0;templ:72;temph:74;tof:136;h:90;bat:82;baro:-84.93;time:22;agx:-12.00;agy:-12.00;agz:-975.00;
pitch:0;roll:0;yaw:99;vgx:0;vgy:0;vgz:0;templ:72;temph:74;tof:137;h:90;bat:82;baro:-84.74;time:22;agx:-26.00;agy:20.00;agz:-986.00;
pitch:0;roll:0;yaw:100;vgx:0;vgy:0;vgz:0;templ:72;temph:74;tof:137;h:90;bat:82;baro:-84.86;time:22;agx:-7.00;agy:-12.00;agz:-1001.00;
pitch:0;roll:0;yaw:105;vgx:0;vgy:0;vgz:0;templ:72;temph:74;tof:138;h:90;bat:82;baro:-84.84;time:22;agx:-7.00;agy:8.00;agz:-1006.00;
pitch:-1;roll:0;yaw:106;vgx:0;vgy:0;vgz:0;templ:72;temph:74;tof:138;h:90;bat:82;baro:-84.95;time:22;agx:23.00;agy:-43.00;agz:-1008.00;
pitch:-1;roll:0;yaw:110;vgx:0;vgy:0;vgz:0;templ:72;temph:74;tof:138;h:90;bat:82;baro:-84.86;time:22;agx:-55.00;agy:28.00;agz:-994.00;
pitch:0;roll:0;yaw:112;vgx:0;vgy:0;vgz:0;templ:72;temph:74;tof:139;h:90;bat:82;baro:-85.09;time:22;agx:39.00;agy:3.00;agz:-997.00;
pitch:-1;roll:0;yaw:115;vgx:0;vgy:0;vgz:0;templ:72;temph:74;tof:139;h:90;bat:82;baro:-84.97;time:22;agx:-2.00;agy:15.00;agz:-1036.00;
pitch:-1;roll:0;yaw:119;vgx:0;vgy:0;vgz:0;templ:72;temph:74;tof:140;h:90;bat:82;baro:-84.78;time:22;agx:-18.00;agy:5.00;agz:-985.00;
pitch:-1;roll:0;yaw:119;vgx:0;vgy:0;vgz:0;templ:72;temph:74;tof:140;h:90;bat:82;baro:-84.84;time:23;agx:-40.00;agy:22.00;agz:-1006.00;
pitch:-1;roll:0;yaw:119;vgx:0;vgy:0;vgz:0;templ:72;temph:74;tof:139;h:90;bat:82;baro:-84.82;time:23;agx:-13.00;agy:8.00;agz:-1008.00;
pitch:-1;roll:0;yaw:119;vgx:0;vgy:0;vgz:0;templ:72;temph:74;tof:139;h:90;bat:82;baro:-84.91;time:23;agx:-44.00;agy:2.00;agz:-990.00;
pitch:-1;roll:0;yaw:119;vgx:0;vgy:0;vgz:0;templ:72;temph:74;tof:139;h:90;bat:82;baro:-84.76;time:23;agx:-10.00;agy:8.00;agz:-1023.00;
pitch:-1;roll:0;yaw:119;vgx:0;vgy:0;vgz:0;templ:72;temph:74;tof:138;h:90;bat:82;baro:-84.74;time:23;agx:-13.00;agy:-7.00;agz:-1006.00;
pitch:-1;roll:0;yaw:120;vgx:0;vgy:0;vgz:0;templ:72;temph:74;tof:139;h:90;bat:82;baro:-84.77;time:23;agx:-6.00;agy:-5.00;agz:-990.00;
pitch:-1;roll:0;yaw:120;vgx:0;vgy:0;vgz:0;templ:72;temph:74;tof:138;h:90;bat:82;baro:-84.80;time:23;agx:-20.00;agy:0.00;agz:-1007.00;
pitch:-1;roll:0;yaw:120;vgx:0;vgy:0;vgz:0;templ:72;temph:74;tof:138;h:90;bat:82;baro:-85.17;time:23;agx:-21.00;agy:-3.00;agz:-992.00;
pitch:-1;roll:0;yaw:119;vgx:0;vgy:0;vgz:0;templ:72;temph:74;tof:137;h:90;bat:82;baro:-84.70;time:23;agx:-18.00;agy:11.00;agz:-1016.00;
pitch:-1;roll:0;yaw:119;vgx:0;vgy:0;vgz:0;templ:72;temph:74;tof:137;h:90;bat:82;baro:-84.89;time:23;agx:-20.00;agy:-3.00;agz:-1000.00;
pitch:-1;roll:0;yaw:119;vgx:0;vgy:0;vgz:0;templ:72;temph:74;tof:137;h:90;bat:82;baro:-84.84;time:24;agx:-22.00;agy:-8.00;agz:-979.00;
pitch:-1;roll:0;yaw:119;vgx:0;vgy:0;vgz:0;templ:72;temph:74;tof:136;h:90;bat:82;baro:-84.92;time:24;agx:-25.00;agy:5.00;agz:-992.00;
pitch:-1;roll:0;yaw:119;vgx:0;vgy:0;vgz:0;templ:72;temph:74;tof:136;h:90;bat:82;baro:-84.87;time:24;agx:-35.00;agy:6.00;agz:-969.00;
pitch:-1;roll:0;yaw:119;vgx:0;vgy:0;vgz:0;templ:72;temph:74;tof:136;h:90;bat:82;baro:-84.87;time:24;agx:6.00;agy:0.00;agz:-983.00;
pitch:-1;roll:0;yaw:119;vgx:0;vgy:0;vgz:0;templ:72;temph:74;tof:136;h:90;bat:82;baro:-85.11;time:24;agx:-12.00;agy:1.00;agz:-1009.00;
pitch:0;roll:0;yaw:119;vgx:0;vgy:0;vgz:0;templ:72;temph:74;tof:136;h:90;bat:82;baro:-85.04;time:24;agx:0.00;agy:-17.00;agz:-970.00;
pitch:0;roll:0;yaw:119;vgx:0;vgy:0;vgz:0;templ:72;temph:74;tof:135;h:90;bat:82;baro:-84.65;time:24;agx:18.00;agy:-8.00;agz:-967.00;
pitch:0;roll:0;yaw:119;vgx:0;vgy:0;vgz:0;templ:72;temph:74;tof:135;h:90;bat:82;baro:-84.88;time:24;agx:19.00;agy:0.00;agz:-992.00;
pitch:0;roll:0;yaw:119;vgx:0;vgy:0;vgz:0;templ:72;temph:74;tof:135;h:90;bat:82;baro:-84.85;time:24;agx:-21.00;agy:-14.00;agz:-979.00;
pitch:0;roll:0;yaw:119;vgx:0;vgy:0;vgz:0;templ:72;temph:74;tof:134;h:90;bat:82;baro:-84.87;time:24;agx:-2.00;agy:-6.00;agz:-1006.00;
pitch:0;roll:0;yaw:119;vgx:0;vgy:0;vgz:0;templ:72;temph:74;tof:134;h:90;bat:82;baro:-84.99;time:25;agx:-9.00;agy:-16.00;agz:-982.00;
pitch:0;roll:0;yaw:119;vgx:0;vgy:0;vgz:0;templ:73;temph:75;tof:134;h:90;bat:82;baro:-85.08;time:25;agx:-38.00;agy:-13.00;agz:-1012.00;
pitch:-1;roll:0;yaw:119;vgx:0;vgy:0;vgz:0;templ:73;temph:75;tof:134;h:90;bat:82;baro:-85.00;time:25;agx:-32.00;agy:-4.00;agz:-1014.00;
pitch:-1;roll:0;yaw:119;vgx:0;vgy:0;vgz:0;templ:73;temph:75;tof:134;h:90;bat:82;baro:-84.82;time:25;agx:-13.00;agy:-9.00;agz:-1047.00;
pitch:-1;roll:0;yaw:119;vgx:0;vgy:0;vgz:0;templ:73;temph:75;tof:134;h:90;bat:82;baro:-84.99;time:25;agx:-3.00;agy:5.00;agz:-994.00;
pitch:-1;roll:0;yaw:119;vgx:0;vgy:0;vgz:0;templ:73;temph:75;tof:134;h:90;bat:82;baro:-84.94;time:25;agx:0.00;agy:4.00;agz:-975.00;
pitch:0;roll:0;yaw:119;vgx:0;vgy:0;vgz:0;templ:73;temph:75;tof:135;h:90;bat:82;baro:-84.80;time:25;agx:-18.00;agy:4.00;agz:-1003.00;
pitch:-1;roll:0;yaw:119;vgx:0;vgy:0;vgz:0;templ:73;temph:75;tof:135;h:90;bat:82;baro:-84.73;time:25;agx:-11.00;agy:-12.00;agz:-997.00;
pitch:-1;roll:0;yaw:119;vgx:0;vgy:0;vgz:0;templ:73;temph:75;tof:136;h:90;bat:82;baro:-85.06;time:25;agx:-14.00;agy:10.00;agz:-1005.00;
pitch:-1;roll:0;yaw:119;vgx:0;vgy:0;vgz:0;templ:73;temph:75;tof:136;h:90;bat:82;baro:-84.86;time:25;agx:-13.00;agy:42.00;agz:-979.00;
pitch:-1;roll:0;yaw:119;vgx:0;vgy:0;vgz:0;templ:73;temph:75;tof:137;h:90;bat:82;baro:-84.81;time:26;agx:10.00;agy:-12.00;agz:-1023.00;
pitch:-1;roll:0;yaw:119;vgx:0;vgy:0;vgz:0;templ:74;temph:75;tof:138;h:90;bat:82;baro:-85.01;time:26;agx:-11.00;agy:-4.00;agz:-988.00;
pitch:-1;roll:0;yaw:119;vgx:0;vgy:0;vgz:0;templ:74;temph:75;tof:138;h:90;bat:82;baro:-85.05;time:26;agx:-14.00;agy:-4.00;agz:-979.00;
pitch:-1;roll:0;yaw:119;vgx:0;vgy:0;vgz:0;templ:74;temph:75;tof:138;h:90;bat:82;baro:-84.77;time:26;agx:-1.00;agy:0.00;agz:-998.00;
pitch:-1;roll:0;yaw:119;vgx:0;vgy:0;vgz:0;templ:74;temph:75;tof:139;h:90;bat:82;baro:-84.82;time:26;agx:-24.00;agy:-1.00;agz:-1011.00;
pitch:0;roll:0;yaw:119;vgx:0;vgy:0;vgz:0;templ:74;temph:75;tof:139;h:90;bat:82;baro:-85.05;time:26;agx:29.00;agy:12.00;agz:-977.00;
pitch:0;roll:0;yaw:119;vgx:0;vgy:0;vgz:0;templ:74;temph:75;tof:139;h:90;bat:82;baro:-84.99;time:26;agx:1.00;agy:-5.00;agz:-980.00;
pitch:0;roll:0;yaw:119;vgx:0;vgy:0;vgz:0;templ:74;temph:75;tof:140;h:90;bat:82;baro:-85.02;time:26;agx:32.00;agy:8.00;agz:-1034.00;
pitch:-1;roll:0;yaw:119;vgx:0;vgy:0;vgz:0;templ:74;temph:75;tof:140;h:90;bat:82;baro:-85.01;time:26;agx:-9.00;agy:-1.00;agz:-977.00;
pitch:-1;roll:0;yaw:119;vgx:0;vgy:0;vgz:0;templ:74;temph:75;tof:141;h:90;bat:82;baro:-84.98;time:26;agx:0.00;agy:9.00;agz:-997.00;
pitch:0;roll:0;yaw:119;vgx:0;vgy:0;vgz:0;templ:74;temph:75;tof:141;h:90;bat:82;baro:-84.64;time:27;agx:0.00;agy:-7.00;agz:-981.00;
pitch:0;roll:0;yaw:119;vgx:0;vgy:0;vgz:0;templ:74;temph:75;tof:141;h:90;bat:82;baro:-84.98;time:27;agx:-22.00;agy:-1.00;agz:-981.00;
pitch:0;roll:0;yaw:119;vgx:0;vgy:0;vgz:0;templ:74;temph:75;tof:141;h:90;bat:82;baro:-84.64;time:27;agx:-22.00;agy:-9.00;agz:-977.00;
pitch:0;roll:0;yaw:119;vgx:0;vgy:0;vgz:0;templ:74;temph:75;tof:142;h:90;bat:82;baro:-84.98;time:27;agx:-8.00;agy:-11.00;agz:-1000.00;
pitch:0;roll:0;yaw:120;vgx:0;vgy:0;vgz:0;templ:74;temph:75;tof:142;h:90;bat:82;baro:-84.67;time:27;agx:4.00;agy:-16.00;agz:-1007.00;
pitch:0;roll:0;yaw:120;vgx:0;vgy:0;vgz:0;templ:74;temph:75;tof:142;h:90;bat:82;baro:-84.98;time:27;agx:39.00;agy:-5.00;agz:-999.00;
pitch:0;roll:0;yaw:120;vgx:0;vgy:0;vgz:0;templ:74;temph:75;tof:141;h:90;bat:82;baro:-84.83;time:27;agx:-34.00;agy:0.00;agz:-958.00;
pitch:0;roll:0;yaw:120;vgx:0;vgy:0;vgz:0;templ:74;temph:75;tof:142;h:90;bat:82;baro:-84.51;time:27;agx:-3.00;agy:-10.00;agz:-963.00;
pitch:0;roll:0;yaw:120;vgx:0;vgy:0;vgz:0;templ:74;temph:75;tof:141;h:90;bat:82;baro:-84.71;time:27;agx:-9.00;agy:-16.00;agz:-1001.00;
pitch:0;roll:0;yaw:120;vgx:0;vgy:0;vgz:0;templ:74;temph:75;tof:141;h:90;bat:82;baro:-84.91;time:27;agx:16.00;agy:-12.00;agz:-1010.00;
pitch:0;roll:0;yaw:120;vgx:0;vgy:0;vgz:0;templ:74;temph:75;tof:141;h:90;bat:82;baro:-85.12;time:28;agx:0.00;agy:4.00;agz:-1013.00;
pitch:0;roll:0;yaw:120;vgx:0;vgy:0;vgz:0;templ:73;temph:76;tof:141;h:90;bat:82;baro:-84.93;time:28;agx:-20.00;agy:3.00;agz:-1037.00;
pitch:0;roll:0;yaw:120;vgx:0;vgy:0;vgz:0;templ:73;temph:76;tof:141;h:90;bat:81;baro:-84.66;time:28;agx:-2.00;agy:2.00;agz:-1001.00;
pitch:0;roll:0;yaw:120;vgx:0;vgy:0;vgz:0;templ:73;temph:76;tof:141;h:90;bat:81;baro:-85.12;time:28;agx:-8.00;agy:-16.00;agz:-980.00;
pitch:0;roll:0;yaw:120;vgx:0;vgy:0;vgz:0;templ:73;temph:76;tof:141;h:90;bat:81;baro:-84.74;time:28;agx:-16.00;agy:-6.00;agz:-963.00;
pitch:0;roll:0;yaw:120;vgx:0;vgy:0;vgz:0;templ:73;temph:76;tof:141;h:90;bat:81;baro:-84.97;time:28;agx:21.00;agy:2.00;agz:-1007.00;
pitch:0;roll:0;yaw:120;vgx:0;vgy:0;vgz:0;templ:73;temph:76;tof:140;h:90;bat:81;baro:-85.10;time:28;agx:-7.00;agy:2.00;agz:-991.00;
pitch:0;roll:0;yaw:120;vgx:0;vgy:0;vgz:0;templ:73;temph:76;tof:140;h:90;bat:81;baro:-84.84;time:28;agx:-50.00;agy:12.00;agz:-1033.00;
pitch:0;roll:0;yaw:120;vgx:0;vgy:0;vgz:0;templ:73;temph:76;tof:139;h:90;bat:81;baro:-84.85;time:28;agx:-48.00;agy:-4.00;agz:-954.00;
pitch:-1;roll:0;yaw:120;vgx:0;vgy:0;vgz:0;templ:73;temph:76;tof:139;h:90;bat:81;baro:-84.69;time:28;agx:-24.00;agy:-1.00;agz:-1012.00;
pitch:-1;roll:0;yaw:120;vgx:0;vgy:0;vgz:0;templ:73;temph:76;tof:139;h:90;bat:81;baro:-84.89;time:29;agx:25.00;agy:5.00;agz:-955.00;
pitch:0;roll:0;yaw:120;vgx:0;vgy:0;vgz:0;templ:75;temph:76;tof:138;h:90;bat:81;baro:-84.91;time:29;agx:-18.00;agy:-6.00;agz:-1002.00;
pitch:0;roll:0;yaw:120;vgx:0;vgy:0;vgz:0;templ:75;temph:76;tof:138;h:90;bat:81;baro:-84.95;time:29;agx:-30.00;agy:-1.00;agz:-1036.00;
pitch:0;roll:0;yaw:120;vgx:0;vgy:0;vgz:0;templ:75;temph:76;tof:138;h:90;bat:81;baro:-84.50;time:29;agx:16.00;agy:-4.00;agz:-971.00;
pitch:0;roll:0;yaw:120;vgx:0;vgy:0;vgz:0;templ:75;temph:76;tof:138;h:90;bat:81;baro:-84.51;time:29;agx:7.00;agy:-9.00;agz:-1010.00;
pitch:0;roll:0;yaw:120;vgx:0;vgy:0;vgz:0;templ:75;temph:76;tof:139;h:90;bat:81;baro:-85.12;time:29;agx:-8.00;agy:5.00;agz:-1012.00;
pitch:0;roll:0;yaw:120;vgx:0;vgy:0;vgz:0;templ:75;temph:76;tof:138;h:90;bat:81;baro:-84.63;time:29;agx:-16.00;agy:0.00;agz:-998.00;
pitch:0;roll:0;yaw:120;vgx:0;vgy:0;vgz:0;templ:75;temph:76;tof:138;h:90;bat:81;baro:-84.94;time:29;agx:-14.00;agy:0.00;agz:-1005.00;
pitch:0;roll:0;yaw:120;vgx:0;vgy:0;vgz:0;templ:75;temph:76;tof:139;h:90;bat:81;baro:-84.88;time:29;agx:0.00;agy:-13.00;agz:-982.00;
pitch:0;roll:0;yaw:120;vgx:0;vgy:0;vgz:0;templ:75;temph:76;tof:139;h:90;bat:81;baro:-84.91;time:29;agx:1.00;agy:2.00;agz:-980.00;
pitch:0;roll:0;yaw:120;vgx:0;vgy:0;vgz:0;templ:75;temph:76;tof:139;h:90;bat:81;baro:-84.81;time:30;agx:-4.00;agy:0.00;agz:-983.00;
pitch:0;roll:0;yaw:120;vgx:0;vgy:0;vgz:0;templ:75;temph:76;tof:139;h:90;bat:81;baro:-84.82;time:30;agx:1.00;agy:0.00;agz:-955.00;
pitch:0;roll:0;yaw:120;vgx:0;vgy:0;vgz:0;templ:75;temph:76;tof:139;h:90;bat:81;baro:-84.79;time:30;agx:-9.00;agy:5.00;agz:-990.00;
pitch:-1;roll:0;yaw:120;vgx:0;vgy:0;vgz:0;templ:75;temph:76;tof:139;h:90;bat:81;baro:-85.13;time:30;agx:-26.00;agy:0.00;agz:-1010.00;
pitch:-1;roll:0;yaw:120;vgx:0;vgy:0;vgz:0;templ:75;temph:76;tof:139;h:90;bat:81;baro:-84.87;time:30;agx:-25.00;agy:9.00;agz:-990.00;
pitch:-1;roll:0;yaw:120;vgx:0;vgy:0;vgz:0;templ:75;temph:76;tof:138;h:90;bat:81;baro:-84.64;time:30;agx:0.00;agy:-7.00;agz:-982.00;
pitch:-1;roll:0;yaw:120;vgx:0;vgy:0;vgz:0;templ:75;temph:76;tof:139;h:90;bat:81;baro:-84.73;time:30;agx:-38.00;agy:0.00;agz:-949.00;
pitch:0;roll:0;yaw:120;vgx:0;vgy:0;vgz:0;templ:75;temph:76;tof:138;h:90;bat:81;baro:-84.87;time:30;agx:9.00;agy:-2.00;agz:-966.00;
pitch:0;roll:0;yaw:120;vgx:0;vgy:0;vgz:0;templ:75;temph:76;tof:138;h:90;bat:81;baro:-84.82;time:30;agx:1.00;agy:-8.00;agz:-975.00;
pitch:0;roll:0;yaw:120;vgx:0;vgy:0;vgz:0;templ:75;temph:76;tof:137;h:90;bat:81;baro:-84.91;time:30;agx:-42.00;agy:-2.00;agz:-1011.00;
pitch:-1;roll:0;yaw:122;vgx:0;vgy:0;vgz:0;templ:75;temph:76;tof:137;h:90;bat:81;baro:-84.75;time:31;agx:22.00;agy:-11.00;agz:-1000.00;
pitch:-1;roll:0;yaw:128;vgx:0;vgy:0;vgz:0;templ:75;temph:77;tof:136;h:90;bat:81;baro:-84.81;time:31;agx:1.00;agy:-4.00;agz:-1007.00;
pitch:-1;roll:0;yaw:134;vgx:0;vgy:0;vgz:0;templ:75;temph:77;tof:136;h:90;bat:81;baro:-84.87;time:31;agx:4.00;agy:-4.00;agz:-992.00;
pitch:-1;roll:0;yaw:140;vgx:0;vgy:0;vgz:0;templ:75;temph:77;tof:136;h:90;bat:81;baro:-85.09;time:31;agx:39.00;agy:-9.00;agz:-1015.00;
pitch:0;roll:0;yaw:146;vgx:0;vgy:0;vgz:0;templ:75;temph:77;tof:136;h:90;bat:81;baro:-84.96;time:31;agx:0.00;agy:-6.00;agz:-966.00;
pitch:0;roll:0;yaw:152;vgx:0;vgy:0;vgz:0;templ:75;temph:77;tof:136;h:90;bat:81;baro:-84.88;time:31;agx:-13.00;agy:0.00;agz:-967.00;
pitch:0;roll:0;yaw:157;vgx:0;vgy:0;vgz:0;templ:75;temph:77;tof:135;h:90;bat:81;baro:-84.91;time:31;agx:0.00;agy:-1.00;agz:-992.00;
pitch:0;roll:0;yaw:163;vgx:0;vgy:0;vgz:0;templ:75;temph:77;tof:136;h:90;bat:81;baro:-84.77;time:31;agx:12.00;agy:4.00;agz:-1005.00;
pitch:0;roll:0;yaw:169;vgx:0;vgy:0;vgz:0;templ:75;temph:77;tof:136;h:90;bat:81;baro:-84.93;time:31;agx:0.00;agy:0.00;agz:-999.00;
pitch:-1;roll:0;yaw:174;vgx:0;vgy:0;vgz:0;templ:75;temph:77;tof:135;h:90;bat:81;baro:-85.02;time:31;agx:6.00;agy:-11.00;agz:-1016.00;
pitch:-1;roll:0;yaw:-179;vgx:0;vgy:0;vgz:0;templ:75;temph:77;tof:135;h:90;bat:81;baro:-84.85;time:32;agx:-14.00;agy:3.00;agz:-970.00;
pitch:-1;roll:0;yaw:-174;vgx:0;vgy:0;vgz:0;templ:75;temph:77;tof:135;h:90;bat:81;baro:-85.02;time:32;agx:-15.00;agy:-4.00;agz:-990.00;
pitch:-1;roll:0;yaw:-168;vgx:0;vgy:0;vgz:0;templ:75;temph:77;tof:135;h:90;bat:81;baro:-84.55;time:32;agx:-33.00;agy:5.00;agz:-976.00;
pitch:-1;roll:0;yaw:-162;vgx:0;vgy:0;vgz:0;templ:75;temph:77;tof:135;h:90;bat:81;baro:-85.10;time:32;agx:6.00;agy:0.00;agz:-1003.00;
pitch:-1;roll:0;yaw:-156;vgx:0;vgy:0;vgz:0;templ:75;temph:77;tof:135;h:90;bat:81;baro:-85.14;time:32;agx:-16.00;agy:18.00;agz:-990.00;
pitch:-1;roll:0;yaw:-150;vgx:0;vgy:0;vgz:0;templ:75;temph:77;tof:135;h:90;bat:81;baro:-84.91;time:32;agx:-39.00;agy:34.00;agz:-988.00;
pitch:0;roll:0;yaw:-148;vgx:0;vgy:0;vgz:0;templ:75;temph:77;tof:134;h:90;bat:81;baro:-85.10;time:32;agx:-48.00;agy:7.00;agz:-1005.00;
pitch:-1;roll:0;yaw:-148;vgx:0;vgy:0;vgz:0;templ:75;temph:77;tof:133;h:90;bat:81;baro:-84.89;time:32;agx:10.00;agy:-2.00;agz:-1047.00;
pitch:-1;roll:0;yaw:-148;vgx:0;vgy:0;vgz:0;templ:75;temph:77;tof:133;h:90;bat:81;baro:-84.64;time:32;agx:-22.00;agy:9.00;agz:-1002.00;
pitch:-1;roll:0;yaw:-148;vgx:0;vgy:0;vgz:0;templ:75;temph:77;tof:134;h:90;bat:81;baro:-85.03;time:32;agx:-43.00;agy:22.00;agz:-987.00;
pitch:-1;roll:0;yaw:-148;vgx:0;vgy:0;vgz:0;templ:75;temph:77;tof:133;h:90;bat:81;baro:-85.27;time:33;agx:-27.00;agy:-4.00;agz:-1007.00;
pitch:-1;roll:0;yaw:-148;vgx:0;vgy:0;vgz:0;templ:75;temph:77;tof:132;h:90;bat:81;baro:-85.02;time:33;agx:-2.00;agy:-1.00;agz:-1010.00;
pitch:-1;roll:0;yaw:-148;vgx:0;vgy:0;vgz:0;templ:75;temph:77;tof:132;h:90;bat:80;baro:-85.14;time:33;agx:-18.00;agy:4.00;agz:-994.00;
pitch:0;roll:0;yaw:-148;vgx:0;vgy:0;vgz:0;templ:75;temph:77;tof:132;h:90;bat:80;baro:-85.05;time:33;agx:-25.00;agy:14.00;agz:-988.00;
pitch:0;roll:0;yaw:-148;vgx:0;vgy:0;vgz:0;templ:75;temph:77;tof:132;h:90;bat:80;baro:-85.00;time:33;agx:-51.00;agy:32.00;agz:-1021.00;
pitch:-1;roll:0;yaw:-151;vgx:0;vgy:0;vgz:0;templ:75;temph:77;tof:132;h:90;bat:80;baro:-84.72;time:33;agx:-34.00;agy:17.00;agz:-981.00;
pitch:0;roll:0;yaw:-157;vgx:0;vgy:0;vgz:0;templ:75;temph:77;tof:132;h:90;bat:80;baro:-84.95;time:33;agx:15.00;agy:0.00;agz:-1018.00;
pitch:0;roll:0;yaw:-163;vgx:0;vgy:0;vgz:0;templ:75;temph:77;tof:132;h:90;bat:80;baro:-85.06;time:33;agx:-12.00;agy:0.00;agz:-969.00;
pitch:0;roll:0;yaw:-169;vgx:0;vgy:0;vgz:0;templ:75;temph:77;tof:132;h:90;bat:80;baro:-84.99;time:33;agx:10.00;agy:-3.00;agz:-994.00;
pitch:0;roll:0;yaw:-175;vgx:0;vgy:0;vgz:0;templ:75;temph:77;tof:131;h:90;bat:80;baro:-85.02;time:33;agx:-17.00;agy:16.00;agz:-991.00;
pitch:0;roll:0;yaw:178;vgx:0;vgy:0;vgz:0;templ:75;temph:77;tof:132;h:90;bat:80;baro:-85.12;time:34;agx:7.00;agy:6.00;agz:-984.00;
pitch:0;roll:0;yaw:172;vgx:0;vgy:0;vgz:0;templ:75;temph:77;tof:131;h:90;bat:80;baro:-84.97;time:34;agx:-21.00;agy:-2.00;agz:-998.00;
pitch:0;roll:0;yaw:166;vgx:0;vgy:0;vgz:0;templ:75;temph:77;tof:131;h:90;bat:80;baro:-85.43;time:34;agx:-35.00;agy:15.00;agz:-992.00;
pitch:-1;roll:0;yaw:160;vgx:0;vgy:0;vgz:0;templ:75;temph:77;tof:131;h:90;bat:80;baro:-84.67;time:34;agx:-23.00;agy:2.00;agz:-989.00;
pitch:0;roll:0;yaw:153;vgx:0;vgy:0;vgz:0;templ:75;temph:77;tof:131;h:90;bat:80;baro:-84.94;time:34;agx:9.00;agy:9.00;agz:-967.00;
pitch:0;roll:0;yaw:147;vgx:0;vgy:0;vgz:0;templ:75;temph:77;tof:130;h:90;bat:80;baro:-85.00;time:34;agx:-25.00;agy:-1.00;agz:-990.00;
pitch:0;roll:0;yaw:140;vgx:0;vgy:0;vgz:0;templ:75;temph:77;tof:130;h:90;bat:80;baro:-85.31;time:34;agx:12.00;agy:5.00;agz:-1002.00;
pitch:0;roll:0;yaw:134;vgx:0;vgy:0;vgz:0;templ:75;temph:77;tof:130;h:90;bat:80;baro:-84.91;time:34;agx:18.00;agy:-8.00;agz:-973.00;
pitch:0;roll:0;yaw:128;vgx:0;vgy:0;vgz:0;templ:75;temph:77;tof:130;h:90;bat:80;baro:-85.05;time:34;agx:-7.00;agy:3.00;agz:-1016.00;
pitch:0;roll:0;yaw:122;vgx:0;vgy:0;vgz:0;templ:75;temph:77;tof:129;h:90;bat:80;baro:-84.77;time:34;agx:-42.00;agy:4.00;agz:-1003.00;
pitch:0;roll:0;yaw:116;vgx:0;vgy:0;vgz:0;templ:75;temph:77;tof:130;h:90;bat:80;baro:-84.93;time:35;agx:-11.00;agy:1.00;agz:-1004.00;
pitch:0;roll:0;yaw:109;vgx:0;vgy:0;vgz:0;templ:75;temph:77;tof:130;h:90;bat:80;baro:-84.90;time:35;agx:-26.00;agy:-4.00;agz:-989.00;
pitch:0;roll:0;yaw:103;vgx:0;vgy:0;vgz:0;templ:75;temph:77;tof:130;h:90;bat:80;baro:-84.99;time:35;agx:-10.00;agy:15.00;agz:-984.00;
pitch:0;roll:0;yaw:96;vgx:0;vgy:0;vgz:0;templ:75;temph:77;tof:129;h:90;bat:80;baro:-85.01;time:35;agx:23.00;agy:8.00;agz:-1023.00;
pitch:0;roll:0;yaw:90;vgx:0;vgy:0;vgz:0;templ:75;temph:77;tof:130;h:90;bat:80;baro:-84.99;time:35;agx:-3.00;agy:-45.00;agz:-962.00;
pitch:0;roll:0;yaw:83;vgx:0;vgy:0;vgz:0;templ:75;temph:77;tof:130;h:90;bat:80;baro:-84.89;time:35;agx:24.00;agy:-4.00;agz:-962.00;
pitch:0;roll:0;yaw:76;vgx:0;vgy:0;vgz:0;templ:75;temph:77;tof:130;h:90;bat:80;baro:-84.92;time:35;agx:-42.00;agy:-5.00;agz:-969.00;
pitch:0;roll:0;yaw:69;vgx:0;vgy:0;vgz:0;templ:75;temph:77;tof:130;h:90;bat:80;baro:-84.76;time:35;agx:-17.00;agy:3.00;agz:-1007.00;
pitch:0;roll:0;yaw:63;vgx:0;vgy:0;vgz:0;templ:75;temph:77;tof:130;h:90;bat:80;baro:-84.74;time:35;agx:-46.00;agy:32.00;agz:-959.00;
pitch:0;roll:0;yaw:57;vgx:0;vgy:0;vgz:0;templ:75;temph:77;tof:131;h:90;bat:80;baro:-84.82;time:35;agx:5.00;agy:11.00;agz:-991.00;
pitch:0;roll:0;yaw:50;vgx:0;vgy:0;vgz:0;templ:75;temph:77;tof:131;h:90;bat:80;baro:-85.00;time:36;agx:8.00;agy:6.00;agz:-972.00;
pitch:0;roll:0;yaw:37;vgx:0;vgy:0;vgz:0;templ:76;temph:78;tof:132;h:90;bat:80;baro:-84.67;time:36;agx:-2.00;agy:11.00;agz:-1001.00;
pitch:0;roll:0;yaw:31;vgx:0;vgy:0;vgz:0;templ:76;temph:78;tof:131;h:90;bat:80;baro:-84.96;time:36;agx:17.00;agy:7.00;agz:-994.00;
pitch:0;roll:0;yaw:24;vgx:0;vgy:0;vgz:0;templ:76;temph:78;tof:132;h:90;bat:80;baro:-84.74;time:36;agx:-34.00;agy:24.00;agz:-963.00;
pitch:0;roll:0;yaw:18;vgx:0;vgy:0;vgz:0;templ:76;temph:78;tof:132;h:90;bat:80;baro:-85.06;time:36;agx:-40.00;agy:6.00;agz:-1018.00;
pitch:0;roll:0;yaw:11;vgx:0;vgy:0;vgz:0;templ:76;temph:78;tof:133;h:90;bat:80;baro:-84.75;time:36;agx:0.00;agy:22.00;agz:-991.00;
pitch:0;roll:0;yaw:4;vgx:0;vgy:0;vgz:0;templ:76;temph:78;tof:133;h:90;bat:80;baro:-84.90;time:36;agx:15.00;agy:29.00;agz:-997.00;
pitch:0;roll:0;yaw:-1;vgx:0;vgy:0;vgz:0;templ:76;temph:78;tof:134;h:90;bat:80;baro:-84.89;time:36;agx:-2.00;agy:21.00;agz:-981.00;
pitch:0;roll:-1;yaw:-8;vgx:0;vgy:0;vgz:0;templ:76;temph:78;tof:134;h:90;bat:80;baro:-84.74;time:36;agx:1.00;agy:6.00;agz:-1021.00;
pitch:0;roll:-1;yaw:-15;vgx:0;vgy:0;vgz:0;templ:76;temph:78;tof:135;h:90;bat:80;baro:-84.81;time:37;agx:22.00;agy:18.00;agz:-997.00;
pitch:0;roll:-1;yaw:-21;vgx:0;vgy:0;vgz:0;templ:76;temph:78;tof:135;h:90;bat:80;baro:-84.67;time:37;agx:4.00;agy:12.00;agz:-1007.00;
pitch:0;roll:-1;yaw:-28;vgx:0;vgy:0;vgz:0;templ:75;temph:78;tof:135;h:90;bat:80;baro:-84.96;time:37;agx:-3.00;agy:9.00;agz:-994.00;
pitch:0;roll:-1;yaw:-35;vgx:0;vgy:0;vgz:0;templ:75;temph:78;tof:135;h:90;bat:80;baro:-84.98;time:37;agx:3.00;agy:21.00;agz:-1004.00;
pitch:0;roll:-1;yaw:-41;vgx:0;vgy:0;vgz:0;templ:75;temph:78;tof:135;h:90;bat:80;baro:-84.93;time:37;agx:30.00;agy:28.00;agz:-973.00;
pitch:0;roll:-1;yaw:-47;vgx:0;vgy:0;vgz:0;templ:75;temph:78;tof:134;h:90;bat:80;baro:-84.99;time:37;agx:-26.00;agy:15.00;agz:-979.00;
pitch:0;roll:-1;yaw:-53;vgx:0;vgy:0;vgz:0;templ:75;temph:78;tof:135;h:90;bat:80;baro:-84.92;time:37;agx:-6.00;agy:25.00;agz:-1014.00;
pitch:0;roll:-1;yaw:-59;vgx:0;vgy:0;vgz:0;templ:75;temph:78;tof:134;h:90;bat:80;baro:-84.95;time:37;agx:8.00;agy:19.00;agz:-1011.00;
pitch:0;roll:0;yaw:-66;vgx:0;vgy:0;vgz:0;templ:75;temph:78;tof:134;h:90;bat:80;baro:-85.01;time:37;agx:30.00;agy:30.00;agz:-979.00;
pitch:0;roll:0;yaw:-72;vgx:0;vgy:0;vgz:0;templ:75;temph:78;tof:132;h:90;bat:80;baro:-84.99;time:37;agx:-13.00;agy:12.00;agz:-971.00;
pitch:0;roll:0;yaw:-78;vgx:0;vgy:0;vgz:0;templ:75;temph:78;tof:132;h:90;bat:80;baro:-84.83;time:38;agx:-7.00;agy:27.00;agz:-996.00;
pitch:0;roll:0;yaw:-84;vgx:0;vgy:0;vgz:0;templ:75;temph:78;tof:132;h:90;bat:80;baro:-84.82;time:38;agx:-22.00;agy:41.00;agz:-979.00;
pitch:0;roll:0;yaw:-90;vgx:0;vgy:0;vgz:0;templ:76;temph:78;tof:131;h:90;bat:80;baro:-85.11;time:38;agx:-5.00;agy:7.00;agz:-992.00;
pitch:0;roll:0;yaw:-96;vgx:0;vgy:0;vgz:0;templ:76;temph:78;tof:131;h:90;bat:79;baro:-84.96;time:38;agx:13.00;agy:26.00;agz:-1021.00;
pitch:0;roll:0;yaw:-102;vgx:0;vgy:0;vgz:0;templ:76;temph:78;tof:131;h:90;bat:79;baro:-84.72;time:38;agx:2.00;agy:22.00;agz:-1010.00;
pitch:0;roll:0;yaw:-108;vgx:0;vgy:0;vgz:0;templ:76;temph:78;tof:130;h:90;bat:79;baro:-84.68;time:38;agx:-54.00;agy:10.00;agz:-924.00;
pitch:0;roll:0;yaw:-115;vgx:0;vgy:0;vgz:0;templ:76;temph:78;tof:130;h:90;bat:79;baro:-84.94;time:38;agx:-12.00;agy:34.00;agz:-967.00;
